~Version Information
VERS.                          2.0 : CWLS LAS LOG DATA FORMAT VERSION 2.0
WRAP.                          NO  : One line per depth step
~Well Information
#MNEM.MEAS UNIT            DATA             DESCRIPTION
STRT .M          1000.0000              : First depth
STOP .M          4200.0000              : Last depth
STEP .M             1.0000              : Step
NULL .      -999.25                      : Null value
WELL .      AGB-02                      : Well name
~Curve Information
#MNEM .UNIT                    DESCRIPTION
DEPT      .M                   : DEPT
GR        .API                 : GR
RHOB      .G/C3                : RHOB
NPHI      .V/V                 : NPHI
RT        .OHMM                : RT
VP        .M/S                 : VP
E_STAT    .GPA                 : E_STAT
NU_STAT   .-                   : NU_STAT
UCS       .MPA                 : UCS
IS_CORE   .-                   : IS_CORE
FACIES    .-                   : FACIES
VSH_TRUE  .V/V                 : VSH_TRUE
PHI_TRUE  .V/V                 : PHI_TRUE
PP_MPA    .MPA                 : PP_MPA
SV_MPA    .MPA                 : SV_MPA
SIG_EFF_MPA.MPA                 : SIG_EFF_MPA
E_DYN     .GPA                 : E_DYN
NU_DYN    .-                   : NU_DYN
IS_HC     .-                   : IS_HC
~Parameter Information
# Generated by GeoMech-LogML synthetic generator (Agbada-like physics).
~A
# ...
3320.000000    96.090000      2.212900       0.377400       1.692000       1636.700000    1.238600       0.403500       6.280000       0.000000       3.000000       0.936100       0.266800       40.894000      81.536000      40.642000      1.923000       0.436300       0.000000      
3321.000000    96.810000      2.209300       0.343400       0.997000       1785.500000    1.245900       0.415300       4.780000       0.000000       3.000000       0.857300       0.277700       40.926000      81.561000      40.635000      1.934900       0.447600       0.000000      
3322.000000    97.350000      2.270000       0.338800       1.366000       1921.300000    1.904400       0.402300       6.540000       0.000000       3.000000       0.841900       0.254300       40.957000      81.585000      40.629000      3.010600       0.428000       0.000000      
3323.000000    92.520000      2.256900       0.339400       1.543000       2146.900000    2.267700       0.382800       5.370000       0.000000       3.000000       0.817900       0.249800       40.988000      81.610000      40.622000      3.621800       0.430700       0.000000      
3324.000000    96.320000      2.244800       0.334100       2.567000       1728.300000    1.466100       0.399900       5.620000       0.000000       3.000000       0.876100       0.258300       41.019000      81.634000      40.615000      2.290500       0.432300       0.000000      
3325.000000    91.670000      2.297900       0.325900       1.633000       2137.800000    3.103100       0.359100       7.250000       0.000000       3.000000       0.797100       0.229100       41.051000      81.659000      40.608000      5.080900       0.395100       0.000000      
3326.000000    95.240000      2.270100       0.352800       2.079000       2016.400000    1.495300       0.393800       5.810000       0.000000       3.000000       0.896200       0.250900       41.082000      81.684000      40.601000      2.338200       0.450000       0.000000      
3327.000000    91.640000      2.256600       0.316900       1.858000       2045.000000    1.976500       0.403500       6.740000       0.000000       3.000000       0.849400       0.248600       41.114000      81.708000      40.594000      3.131600       0.434600       0.000000      
3328.000000    90.520000      2.272900       0.330600       1.288000       1966.300000    2.103800       0.378600       6.690000       0.000000       3.000000       0.847000       0.244700       41.145000      81.733000      40.588000      3.345300       0.422800       0.000000      
3329.000000    97.690000      2.270600       0.347900       3.218000       2002.900000    1.637100       0.414500       6.490000       0.000000       3.000000       0.869300       0.255100       41.177000      81.757000      40.581000      2.570000       0.445900       0.000000      
3330.000000    91.280000      2.286400       0.343100       1.309000       2039.900000    2.139000       0.414600       5.660000       0.000000       3.000000       0.821300       0.254000       41.208000      81.782000      40.574000      3.404700       0.428400       0.000000      
3331.000000    95.930000      2.260800       0.309300       1.392000       2022.500000    1.922100       0.411400       7.750000       0.000000       3.000000       0.862300       0.245800       41.240000      81.806000      40.567000      3.040900       0.435300       0.000000      
3332.000000    93.760000      2.232200       0.352100       1.435000       1819.600000    1.259700       0.420000       4.770000       0.000000       3.000000       0.886200       0.269600       41.271000      81.831000      40.560000      1.957900       0.449700       0.000000      
3333.000000    100.110000     2.253100       0.343800       1.502000       1782.500000    1.477500       0.407800       5.790000       0.000000       3.000000       0.874700       0.258800       41.303000      81.856000      40.553000      2.309600       0.436800       0.000000      
3334.000000    94.110000      2.235700       0.356600       0.991000       1862.100000    1.523500       0.416000       4.590000       0.000000       3.000000       0.841200       0.269400       41.335000      81.880000      40.546000      2.384300       0.440200       0.000000      
3335.000000    98.960000      2.270100       0.346300       2.708000       1968.600000    1.287200       0.420000       5.990000       0.000000       3.000000       0.933400       0.247200       41.366000      81.905000      40.538000      2.002000       0.450000       0.000000      
3336.000000    95.920000      2.240200       0.351200       1.370000       1905.200000    1.440200       0.420000       5.090000       0.000000       3.000000       0.874700       0.260400       41.398000      81.929000      40.531000      2.248900       0.447200       0.000000      
3337.000000    94.160000      2.268400       0.314100       1.781000       1971.800000    2.422800       0.366900       6.910000       0.000000       3.000000       0.826600       0.240000       41.430000      81.954000      40.524000      3.887500       0.407200       0.000000      
3338.000000    99.440000      2.267600       0.347300       1.233000       1963.700000    1.853600       0.396900       6.850000       0.000000       3.000000       0.863700       0.248000       41.461000      81.978000      40.517000      2.926700       0.433900       0.000000      
3339.000000    69.310000      2.310600       0.285900       0.783000       2955.100000    6.643400       0.336200       8.690000       0.000000       2.000000       0.530100       0.225700       41.493000      82.003000      40.510000      12.457400      0.352100       0.000000      
3340.000000    67.710000      2.306400       0.259700       1.761000       2968.900000    6.957200       0.309300       11.370000      0.000000       2.000000       0.534000       0.213500       41.525000      82.027000      40.502000      13.252500      0.339200       0.000000      
3341.000000    76.040000      2.275500       0.287900       1.180000       2630.700000    5.273200       0.326400       6.780000       0.000000       2.000000       0.594200       0.238900       41.557000      82.052000      40.495000      9.309800       0.361300       0.000000      
3342.000000    81.720000      2.286200       0.281700       0.870000       2719.800000    5.384200       0.326900       8.090000       0.000000       2.000000       0.625900       0.224900       41.589000      82.077000      40.488000      9.547200       0.370300       0.000000      
3343.000000    66.930000      2.307200       0.245900       1.411000       2909.400000    6.620200       0.319600       8.930000       0.000000       2.000000       0.532300       0.224700       41.621000      82.101000      40.481000      12.395500      0.345700       0.000000      
3344.000000    63.410000      2.303200       0.286900       1.257000       3025.500000    7.276100       0.311400       9.090000       0.000000       2.000000       0.498300       0.217000       41.652000      82.126000      40.473000      14.092500      0.332600       0.000000      
3345.000000    64.860000      2.295100       0.300400       0.673000       2887.400000    6.761900       0.310600       9.070000       0.000000       2.000000       0.529600       0.219500       41.684000      82.150000      40.466000      12.746500      0.333500       0.000000      
3346.000000    66.940000      2.319600       0.257000       1.068000       3051.900000    7.358700       0.316900       10.520000      0.000000       2.000000       0.506700       0.212700       41.716000      82.175000      40.458000      14.314200      0.335000       0.000000      
3347.000000    71.000000      2.321200       0.261400       0.887000       2813.400000    6.302300       0.323800       9.730000       0.000000       2.000000       0.574500       0.218500       41.748000      82.199000      40.451000      11.618400      0.346600       0.000000      
3348.000000    78.090000      2.291400       0.322800       0.932000       2442.500000    4.388100       0.331200       8.120000       0.000000       2.000000       0.656800       0.242400       41.780000      82.224000      40.444000      7.490200       0.375700       0.000000      
