~Version Information
VERS.                          2.0 : CWLS LAS LOG DATA FORMAT VERSION 2.0
WRAP.                          NO  : One line per depth step
~Well Information
#MNEM.MEAS UNIT            DATA             DESCRIPTION
STRT .M          1000.0000              : First depth
STOP .M          4200.0000              : Last depth
STEP .M             1.0000              : Step
NULL .      -999.25                      : Null value
WELL .      AGB-03                      : Well name
~Curve Information
#MNEM .UNIT                    DESCRIPTION
DEPT      .M                   : DEPT
GR        .API                 : GR
RHOB      .G/C3                : RHOB
NPHI      .V/V                 : NPHI
RT        .OHMM                : RT
VP        .M/S                 : VP
E_STAT    .GPA                 : E_STAT
NU_STAT   .-                   : NU_STAT
UCS       .MPA                 : UCS
IS_CORE   .-                   : IS_CORE
FACIES    .-                   : FACIES
VSH_TRUE  .V/V                 : VSH_TRUE
PHI_TRUE  .V/V                 : PHI_TRUE
PP_MPA    .MPA                 : PP_MPA
SV_MPA    .MPA                 : SV_MPA
SIG_EFF_MPA.MPA                 : SIG_EFF_MPA
E_DYN     .GPA                 : E_DYN
NU_DYN    .-                   : NU_DYN
IS_HC     .-                   : IS_HC
~Parameter Information
# Generated by GeoMech-LogML synthetic generator (Agbada-like physics).
~A
# ...
2044.000000    44.540000      2.285200       0.208300       1.686000       3345.400000    11.428200      0.251500       8.530000       0.000000       1.000000       0.210600       0.234300       20.669000      49.676000      29.007000      20.772900      0.263000       0.000000      
2045.000000    95.900000      2.175700       0.391600       1.532000       1450.000000    1.395500       0.385400       2.800000       0.000000       3.000000       0.898900       0.310200       20.679000      49.701000      29.021000      1.863800       0.416000       0.000000      
2046.000000    89.090000      2.218000       0.386300       1.002000       1542.900000    1.432900       0.395200       3.690000       0.000000       3.000000       0.867500       0.288600       20.689000      49.725000      29.035000      1.915100       0.427200       0.000000      
2047.000000    99.530000      2.040600       0.473800       2.392000       1450.000000    1.311100       0.385200       2.050000       0.000000       3.000000       0.969500       0.370600       20.700000      49.749000      29.050000      1.748100       0.416000       0.000000      
2048.000000    93.450000      2.148400       0.393900       1.025000       1450.000000    1.378600       0.385000       3.050000       0.000000       3.000000       0.885200       0.316200       20.710000      49.774000      29.064000      1.840500       0.416000       0.000000      
2049.000000    91.540000      2.147000       0.361400       0.954000       1592.200000    1.393200       0.381800       3.060000       0.000000       3.000000       0.844700       0.302700       20.720000      49.798000      29.078000      1.860400       0.432300       0.000000      
2050.000000    99.580000      2.187700       0.377100       1.296000       1644.000000    1.423500       0.411800       3.710000       0.000000       3.000000       0.829700       0.293500       20.730000      49.822000      29.092000      1.901900       0.437000       0.000000      
2051.000000    96.950000      2.161900       0.385400       1.856000       1450.000000    1.387100       0.381200       3.110000       0.000000       3.000000       0.888300       0.308300       20.740000      49.846000      29.106000      1.852000       0.416000       0.000000      
2052.000000    91.300000      2.151800       0.388500       1.056000       1539.400000    1.391200       0.409000       2.840000       0.000000       3.000000       0.822100       0.316000       20.750000      49.871000      29.121000      1.857500       0.426800       0.000000      
2053.000000    88.200000      2.225800       0.356600       0.896000       1873.500000    1.642700       0.420000       4.330000       0.000000       3.000000       0.827600       0.274500       20.760000      49.895000      29.135000      2.204000       0.446000       0.000000      
2054.000000    97.380000      2.215600       0.369000       2.223000       1879.300000    1.658600       0.419700       3.750000       0.000000       3.000000       0.813600       0.279000       20.770000      49.919000      29.149000      2.225900       0.445400       0.000000      
2055.000000    93.880000      2.110100       0.398000       2.931000       1450.000000    1.355000       0.379000       2.670000       0.000000       3.000000       0.849000       0.339200       20.780000      49.944000      29.163000      1.807700       0.416000       0.000000      
2056.000000    89.910000      2.125500       0.387000       2.783000       1478.900000    1.368200       0.366100       2.760000       0.000000       3.000000       0.872500       0.325300       20.791000      49.968000      29.177000      1.825700       0.419800       0.000000      
2057.000000    88.830000      2.151300       0.370900       0.862000       1503.300000    1.387200       0.392400       3.180000       0.000000       3.000000       0.821000       0.319900       20.801000      49.992000      29.192000      1.851700       0.422700       0.000000      
2058.000000    86.900000      2.086200       0.405500       0.878000       1450.000000    1.340200       0.396000       2.630000       0.000000       3.000000       0.817100       0.333500       20.811000      50.017000      29.206000      1.787200       0.416000       0.000000      
2059.000000    96.620000      2.169400       0.377800       1.446000       1450.000000    1.392300       0.382700       3.780000       0.000000       3.000000       0.873600       0.301600       20.821000      50.041000      29.220000      1.858500       0.416000       0.000000      
2060.000000    96.560000      2.148600       0.386500       0.800000       1450.000000    1.379300       0.390500       2.650000       0.000000       3.000000       0.845200       0.321200       20.831000      50.065000      29.234000      1.840600       0.416000       0.000000      
2061.000000    90.520000      2.137400       0.398200       1.276000       1606.200000    1.389000       0.405400       2.730000       0.000000       3.000000       0.791300       0.326500       20.841000      50.090000      29.248000      1.853800       0.433600       0.000000      
2062.000000    91.880000      2.182700       0.395900       1.489000       1534.200000    1.410700       0.408300       3.520000       0.000000       3.000000       0.891300       0.302600       20.851000      50.114000      29.263000      1.883500       0.426300       0.000000      
2063.000000    95.730000      2.153100       0.374400       1.124000       1493.500000    1.387700       0.395300       4.090000       0.000000       3.000000       0.830100       0.305400       20.861000      50.138000      29.277000      1.851800       0.421600       0.000000      
2064.000000    89.940000      2.188300       0.355700       1.541000       1450.000000    1.404400       0.381000       3.730000       0.000000       3.000000       0.869700       0.299400       20.872000      50.162000      29.291000      1.874600       0.416000       0.000000      
2065.000000    94.020000      2.162500       0.399700       1.403000       1450.000000    1.388300       0.366400       3.000000       0.000000       3.000000       0.849700       0.327900       20.882000      50.187000      29.305000      1.852500       0.416000       0.000000      
2066.000000    88.030000      2.143400       0.394600       1.371000       1495.100000    1.382000       0.387400       2.970000       0.000000       3.000000       0.812500       0.334700       20.892000      50.211000      29.319000      1.843700       0.421800       0.000000      
2067.000000    101.660000     2.117600       0.404300       0.808000       1450.000000    1.360400       0.380600       3.200000       0.000000       3.000000       0.876900       0.325300       20.902000      50.235000      29.333000      1.814100       0.416000       0.000000      
2068.000000    99.290000      2.156900       0.381400       2.050000       1450.000000    1.385100       0.386800       3.070000       0.000000       3.000000       0.914700       0.318200       20.912000      50.260000      29.348000      1.847700       0.416000       0.000000      
2069.000000    103.000000     2.159600       0.388200       1.836000       1450.000000    1.386800       0.379900       2.880000       0.000000       3.000000       0.914800       0.317900       20.922000      50.284000      29.362000      1.850000       0.416000       0.000000      
2070.000000    93.050000      2.184000       0.397300       1.191000       1450.000000    1.402200       0.375300       3.490000       0.000000       3.000000       0.863100       0.312500       20.932000      50.308000      29.376000      1.871000       0.416000       0.000000      
2071.000000    90.760000      2.163400       0.402400       1.518000       1662.000000    1.411000       0.389000       3.300000       0.000000       3.000000       0.865000       0.306300       20.942000      50.333000      29.390000      1.882800       0.438500       0.000000      
2072.000000    89.920000      2.188600       0.369600       1.326000       1455.500000    1.406000       0.380400       3.340000       0.000000       3.000000       0.830400       0.298500       20.952000      50.357000      29.404000      1.875800       0.416700       0.000000      
