~Version Information
VERS.                          2.0 : CWLS LAS LOG DATA FORMAT VERSION 2.0
WRAP.                          NO  : One line per depth step
~Well Information
#MNEM.MEAS UNIT            DATA             DESCRIPTION
STRT .M          1000.0000              : First depth
STOP .M          4200.0000              : Last depth
STEP .M             1.0000              : Step
NULL .      -999.25                      : Null value
WELL .      AGB-01                      : Well name
~Curve Information
#MNEM .UNIT                    DESCRIPTION
DEPT      .M                   : DEPT
GR        .API                 : GR
RHOB      .G/C3                : RHOB
NPHI      .V/V                 : NPHI
RT        .OHMM                : RT
VP        .M/S                 : VP
E_STAT    .GPA                 : E_STAT
NU_STAT   .-                   : NU_STAT
UCS       .MPA                 : UCS
IS_CORE   .-                   : IS_CORE
FACIES    .-                   : FACIES
VSH_TRUE  .V/V                 : VSH_TRUE
PHI_TRUE  .V/V                 : PHI_TRUE
PP_MPA    .MPA                 : PP_MPA
SV_MPA    .MPA                 : SV_MPA
SIG_EFF_MPA.MPA                 : SIG_EFF_MPA
E_DYN     .GPA                 : E_DYN
NU_DYN    .-                   : NU_DYN
IS_HC     .-                   : IS_HC
~Parameter Information
# Generated by GeoMech-LogML synthetic generator (Agbada-like physics).
~A
# ...
1203.000000    21.800000      2.132200       0.300600       0.634000       2929.400000    9.062600       0.199900       3.010000       0.000000       0.000000       0.020000       0.310500       12.437000      27.341000      14.904000      15.832700      0.228000       0.000000      
1204.000000    27.620000      2.102700       0.319700       0.324000       2822.400000    8.128600       0.223800       2.660000       0.000000       0.000000       0.067200       0.323100       12.448000      27.364000      14.916000      13.657000      0.261200       0.000000      
1205.000000    30.410000      2.140500       0.299100       0.795000       2927.400000    8.885000       0.229100       2.970000       1.000000       0.000000       0.046300       0.309500       12.458000      27.387000      14.929000      15.403900      0.245800       0.000000      
1206.000000    24.130000      2.161200       0.268000       0.379000       2810.500000    8.933300       0.165800       3.180000       0.000000       0.000000       0.020000       0.311300       12.468000      27.409000      14.941000      15.522400      0.191500       0.000000      
1207.000000    25.700000      2.144900       0.277000       0.427000       2938.900000    8.945800       0.233600       3.410000       0.000000       0.000000       0.075600       0.296800       12.479000      27.432000      14.953000      15.554100      0.245900       0.000000      
1208.000000    29.540000      2.133900       0.295600       0.607000       2778.800000    8.167200       0.233500       3.800000       0.000000       0.000000       0.121400       0.302200       12.489000      27.455000      14.966000      13.748000      0.249300       0.000000      
1209.000000    22.500000      2.131300       0.278600       0.385000       2964.800000    8.892000       0.233000       3.310000       0.000000       0.000000       0.055400       0.306600       12.499000      27.477000      14.978000      15.427100      0.256200       0.000000      
1210.000000    33.960000      2.126400       0.322000       0.300000       2828.000000    7.894900       0.245300       3.050000       0.000000       0.000000       0.102700       0.321800       12.510000      27.500000      14.991000      13.153400      0.284600       0.000000      
1211.000000    26.100000      2.175800       0.294600       0.621000       3026.700000    9.536600       0.213200       3.730000       0.000000       0.000000       0.020000       0.301100       12.520000      27.523000      15.003000      17.054200      0.235000       0.000000      
1212.000000    30.810000      2.146700       0.325800       0.643000       2813.300000    8.152300       0.242000       2.910000       0.000000       0.000000       0.113800       0.309100       12.530000      27.546000      15.015000      13.721200      0.265800       0.000000      
1213.000000    26.020000      2.179200       0.263800       0.543000       3073.500000    9.863000       0.184500       3.740000       1.000000       0.000000       0.020000       0.289100       12.541000      27.568000      15.028000      17.939400      0.223400       0.000000      
1214.000000    29.040000      2.151200       0.266500       0.558000       2833.700000    8.941600       0.183600       3.070000       0.000000       0.000000       0.043900       0.302300       12.551000      27.591000      15.040000      15.557500      0.199400       0.000000      
1215.000000    30.480000      2.129200       0.288100       0.559000       2631.600000    8.028600       0.177200       2.790000       0.000000       0.000000       0.064800       0.318600       12.561000      27.614000      15.053000      13.453300      0.188500       0.000000      
1216.000000    33.070000      2.200300       0.303200       0.476000       2885.600000    9.051900       0.185600       3.170000       0.000000       0.000000       0.097100       0.287700       12.572000      27.637000      15.065000      15.832100      0.228900       0.000000      
1217.000000    23.640000      2.146200       0.299700       0.366000       2940.200000    8.968100       0.198000       3.120000       0.000000       0.000000       0.020000       0.317500       12.582000      27.659000      15.077000      15.628400      0.244100       0.000000      
1218.000000    25.260000      2.166700       0.255400       0.658000       2963.500000    9.392700       0.210200       3.960000       1.000000       0.000000       0.068600       0.283400       12.592000      27.682000      15.090000      16.696300      0.218800       0.000000      
1219.000000    24.450000      2.176500       0.282600       0.318000       2950.800000    9.332100       0.184500       3.360000       0.000000       0.000000       0.024700       0.303700       12.603000      27.705000      15.102000      16.543200      0.222300       0.000000      
1220.000000    32.430000      2.098700       0.308100       0.300000       2790.500000    8.321600       0.202200       2.860000       0.000000       0.000000       0.056500       0.316500       12.613000      27.727000      15.114000      14.115300      0.229200       0.000000      
1221.000000    34.100000      2.117700       0.313400       0.610000       2720.100000    7.807000       0.239400       2.760000       0.000000       0.000000       0.099100       0.320800       12.623000      27.750000      15.127000      12.981700      0.253100       0.000000      
1222.000000    29.270000      2.125600       0.310400       0.596000       2828.300000    8.057200       0.258000       2.980000       0.000000       0.000000       0.056800       0.333200       12.634000      27.773000      15.139000      13.528300      0.272600       0.000000      
1223.000000    41.210000      2.135400       0.307400       0.525000       2600.800000    6.943400       0.231300       3.090000       0.000000       0.000000       0.203900       0.311400       12.644000      27.796000      15.152000      11.199800      0.283700       0.000000      
1224.000000    25.790000      2.127400       0.312000       0.568000       2796.200000    8.547000       0.209300       2.500000       0.000000       0.000000       0.037500       0.317600       12.654000      27.818000      15.164000      14.641400      0.216600       0.000000      
1225.000000    34.750000      2.118500       0.331400       0.358000       2689.100000    7.423500       0.247200       2.530000       0.000000       0.000000       0.128400       0.323700       12.665000      27.841000      15.176000      12.178700      0.273000       0.000000      
1226.000000    31.490000      2.180900       0.297600       0.488000       2947.700000    9.274800       0.207200       3.510000       1.000000       0.000000       0.056200       0.294700       12.675000      27.864000      15.189000      16.415400      0.227300       0.000000      
1227.000000    37.270000      2.136600       0.316900       0.393000       2522.400000    7.155100       0.202100       3.130000       0.000000       0.000000       0.148600       0.320100       12.685000      27.887000      15.201000      11.631100      0.235000       0.000000      
1228.000000    37.110000      2.174900       0.287400       0.815000       2677.000000    8.069500       0.193400       2.920000       0.000000       0.000000       0.132700       0.300700       12.696000      27.909000      15.214000      13.567600      0.224200       0.000000      
1229.000000    25.660000      2.158500       0.296800       0.423000       3029.500000    8.848900       0.259100       3.540000       0.000000       0.000000       0.086200       0.302900       12.706000      27.932000      15.226000      15.367800      0.283500       0.000000      
1230.000000    24.070000      2.129200       0.292600       0.553000       2840.900000    8.723300       0.185400       3.250000       0.000000       0.000000       0.034700       0.314000       12.716000      27.955000      15.238000      15.068900      0.219200       0.000000      
1231.000000    32.650000      2.170300       0.284700       1.081000       2959.000000    8.925900       0.249900       3.750000       0.000000       0.000000       0.131300       0.280600       12.727000      27.977000      15.251000      15.558800      0.259100       0.000000      
