~Version Information
VERS.                          2.0 : CWLS LAS LOG DATA FORMAT VERSION 2.0
WRAP.                          NO  : One line per depth step
~Well Information
#MNEM.MEAS UNIT            DATA             DESCRIPTION
STRT .M          1000.0000              : First depth
STOP .M          4200.0000              : Last depth
STEP .M             1.0000              : Step
NULL .      -999.25                      : Null value
WELL .      AGB-01                      : Well name
~Curve Information
#MNEM .UNIT                    DESCRIPTION
DEPT      .M                   : DEPT
GR        .API                 : GR
RHOB      .G/C3                : RHOB
NPHI      .V/V                 : NPHI
RT        .OHMM                : RT
VP        .M/S                 : VP
E_STAT    .GPA                 : E_STAT
NU_STAT   .-                   : NU_STAT
UCS       .MPA                 : UCS
IS_CORE   .-                   : IS_CORE
FACIES    .-                   : FACIES
VSH_TRUE  .V/V                 : VSH_TRUE
PHI_TRUE  .V/V                 : PHI_TRUE
PP_MPA    .MPA                 : PP_MPA
SV_MPA    .MPA                 : SV_MPA
SIG_EFF_MPA.MPA                 : SIG_EFF_MPA
E_DYN     .GPA                 : E_DYN
NU_DYN    .-                   : NU_DYN
IS_HC     .-                   : IS_HC
~Parameter Information
# Generated by GeoMech-LogML synthetic generator (Agbada-like physics).
~A
# ...
2276.000000    31.770000      2.278200       0.194500       0.525000       3773.000000    12.663700      0.203500       8.900000       0.000000       0.000000       0.039400       0.227200       23.530000      51.728000      28.197000      27.979300      0.229900       0.000000      
2277.000000    23.530000      2.290600       0.185500       1.092000       3655.400000    12.337300      0.201900       9.220000       0.000000       0.000000       0.089700       0.226000       23.541000      51.750000      28.210000      26.146600      0.235900       0.000000      
2278.000000    21.920000      2.278700       0.219600       0.862000       3885.200000    12.894300      0.210500       9.870000       0.000000       0.000000       0.021700       0.220700       23.551000      51.773000      28.222000      29.609700      0.231300       0.000000      
2279.000000    30.580000      2.298400       0.209600       0.996000       3665.700000    12.334000      0.240700       9.140000       0.000000       0.000000       0.089600       0.228000       23.561000      51.796000      28.234000      26.133100      0.241600       0.000000      
2280.000000    33.360000      2.252400       0.255000       0.831000       3491.100000    11.491900      0.205000       6.360000       0.000000       0.000000       0.114800       0.249000       23.572000      51.818000      28.247000      22.553700      0.257400       0.000000      
2281.000000    23.280000      2.310800       0.227200       1.272000       3915.500000    12.968600      0.216300       10.760000      0.000000       0.000000       0.020000       0.220600       23.582000      51.841000      28.259000      30.252800      0.236200       0.000000      
2282.000000    44.790000      2.253300       0.229300       1.400000       3393.600000    11.486800      0.212700       8.580000       0.000000       0.000000       0.151900       0.229500       23.592000      51.864000      28.271000      22.537800      0.225700       0.000000      
2283.000000    40.350000      2.219700       0.263600       0.775000       3323.000000    10.716500      0.224800       5.720000       0.000000       0.000000       0.138000       0.262900       23.603000      51.887000      28.284000      19.970600      0.261500       0.000000      
2284.000000    27.020000      2.287800       0.194900       0.767000       3760.300000    12.784200      0.186100       9.740000       0.000000       0.000000       0.035500       0.218700       23.613000      51.909000      28.296000      28.802600      0.208400       0.000000      
2285.000000    30.180000      2.289800       0.200500       0.635000       3759.200000    12.490600      0.227100       9.580000       0.000000       0.000000       0.077500       0.226200       23.623000      51.932000      28.309000      26.977600      0.249800       0.000000      
2286.000000    32.090000      2.282800       0.215300       1.090000       3700.100000    12.571600      0.188300       10.890000      0.000000       0.000000       0.037300       0.231000       23.634000      51.955000      28.321000      27.443000      0.218300       0.000000      
2287.000000    24.860000      2.297900       0.199800       1.220000       3913.600000    12.953100      0.220700       9.350000       0.000000       0.000000       0.020000       0.219900       23.644000      51.978000      28.333000      30.140900      0.234500       0.000000      
2288.000000    39.130000      2.269900       0.224700       0.579000       3272.700000    10.949100      0.222800       6.240000       0.000000       0.000000       0.171000       0.243600       23.655000      52.000000      28.346000      20.705000      0.237800       0.000000      
2289.000000    32.950000      2.280400       0.200000       1.066000       3654.200000    12.159100      0.238400       6.760000       0.000000       0.000000       0.109600       0.227800       23.665000      52.023000      28.358000      25.306200      0.251500       0.000000      
2290.000000    35.400000      2.294300       0.236600       1.290000       3573.900000    12.147700      0.184500       8.220000       1.000000       0.000000       0.123600       0.220500       23.675000      52.046000      28.371000      25.254100      0.230600       0.000000      
2291.000000    26.030000      2.319500       0.206300       0.901000       3712.100000    12.714700      0.181100       8.990000       0.000000       0.000000       0.040200       0.224700       23.686000      52.068000      28.383000      28.349400      0.211100       0.000000      
2292.000000    28.130000      2.283800       0.203000       1.542000       3681.100000    12.410800      0.223200       10.020000      0.000000       0.000000       0.095900       0.219100       23.696000      52.091000      28.395000      26.560600      0.233100       0.000000      
2293.000000    30.520000      2.269500       0.249300       0.858000       3515.300000    11.322700      0.259600       7.000000       0.000000       0.000000       0.143600       0.249000       23.706000      52.114000      28.408000      21.963700      0.279500       0.000000      
2294.000000    32.830000      2.272400       0.238800       0.941000       3490.600000    11.787300      0.216300       9.040000       0.000000       0.000000       0.127400       0.231700       23.717000      52.137000      28.420000      23.707500      0.234600       0.000000      
2295.000000    33.440000      2.314900       0.229000       1.007000       3632.600000    12.417200      0.204100       10.190000      0.000000       0.000000       0.109900       0.214900       23.727000      52.159000      28.433000      26.600000      0.223900       0.000000      
2296.000000    34.250000      2.301100       0.219200       1.005000       3518.000000    12.117500      0.196600       10.590000      0.000000       0.000000       0.098700       0.229200       23.737000      52.182000      28.445000      25.125200      0.215000       0.000000      
2297.000000    31.310000      2.288500       0.218800       0.781000       3708.400000    12.217000      0.233600       8.960000       0.000000       0.000000       0.124300       0.222600       23.748000      52.205000      28.457000      25.593200      0.262500       0.000000      
2298.000000    35.720000      2.271200       0.222900       0.934000       3626.800000    12.173500      0.219600       7.040000       0.000000       0.000000       0.101500       0.227200       23.758000      52.228000      28.470000      25.387800      0.239000       0.000000      
2299.000000    39.300000      2.276000       0.212300       0.679000       3513.300000    11.700900      0.233400       7.850000       0.000000       0.000000       0.141100       0.232800       23.768000      52.250000      28.482000      23.369600      0.251000       0.000000      
2300.000000    22.560000      2.301800       0.189100       0.830000       3750.700000    12.836000      0.180000       8.890000       0.000000       0.000000       0.028900       0.217400       23.779000      52.273000      28.494000      29.227400      0.197700       0.000000      
2301.000000    28.590000      2.267400       0.233100       1.558000       3689.100000    12.476000      0.206800       7.020000       0.000000       0.000000       0.046000       0.231700       23.789000      52.296000      28.507000      26.927100      0.222500       0.000000      
2302.000000    25.160000      2.301500       0.183800       0.671000       3947.300000    13.050100      0.198600       12.250000      0.000000       0.000000       0.020000       0.211000       23.799000      52.318000      28.519000      31.134400      0.225800       0.000000      
2303.000000    31.240000      2.282100       0.236600       0.829000       3546.000000    11.873100      0.227600       8.030000       0.000000       0.000000       0.124000       0.233000       23.810000      52.341000      28.532000      24.065200      0.246600       0.000000      
2304.000000    27.580000      2.275600       0.243800       0.599000       3480.000000    11.930900      0.168900       8.370000       0.000000       0.000000       0.094200       0.236000       23.820000      52.364000      28.544000      24.308900      0.215100       0.000000      
