~Version Information
VERS.                          2.0 : CWLS LAS LOG DATA FORMAT VERSION 2.0
WRAP.                          NO  : One line per depth step
~Well Information
#MNEM.MEAS UNIT            DATA             DESCRIPTION
STRT .M          1000.0000              : First depth
STOP .M          4200.0000              : Last depth
STEP .M             1.0000              : Step
NULL .      -999.25                      : Null value
WELL .      AGB-01                      : Well name
~Curve Information
#MNEM .UNIT                    DESCRIPTION
DEPT      .M                   : DEPT
GR        .API                 : GR
RHOB      .G/C3                : RHOB
NPHI      .V/V                 : NPHI
RT        .OHMM                : RT
VP        .M/S                 : VP
E_STAT    .GPA                 : E_STAT
NU_STAT   .-                   : NU_STAT
UCS       .MPA                 : UCS
IS_CORE   .-                   : IS_CORE
FACIES    .-                   : FACIES
VSH_TRUE  .V/V                 : VSH_TRUE
PHI_TRUE  .V/V                 : PHI_TRUE
PP_MPA    .MPA                 : PP_MPA
SV_MPA    .MPA                 : SV_MPA
SIG_EFF_MPA.MPA                 : SIG_EFF_MPA
E_DYN     .GPA                 : E_DYN
NU_DYN    .-                   : NU_DYN
IS_HC     .-                   : IS_HC
~Parameter Information
# Generated by GeoMech-LogML synthetic generator (Agbada-like physics).
~A
# ...
1841.000000    29.100000      2.167300       0.148200       2.268000       2931.100000    9.787900       0.136200       7.190000       0.000000       0.000000       0.087700       0.253200       19.033000      41.841000      22.808000      17.578100      0.153900       1.000000      
1842.000000    28.010000      2.177100       0.151600       1.505000       3002.000000    9.883700       0.167200       6.710000       0.000000       0.000000       0.103800       0.251900       19.044000      41.864000      22.820000      17.832000      0.191900       1.000000      
1843.000000    34.790000      2.102700       0.175600       1.787000       2774.600000    8.505800       0.197300       4.180000       0.000000       0.000000       0.117300       0.285700       19.054000      41.887000      22.833000      14.409300      0.208500       1.000000      
1844.000000    29.960000      2.165700       0.144700       2.194000       2914.000000    9.656100       0.130800       6.190000       0.000000       0.000000       0.084700       0.260600       19.064000      41.909000      22.845000      17.214100      0.163500       1.000000      
1845.000000    31.660000      2.137700       0.163300       1.402000       2928.600000    9.446800       0.170900       4.910000       0.000000       0.000000       0.103500       0.262400       19.075000      41.932000      22.858000      16.667600      0.191700       1.000000      
1846.000000    30.970000      2.173900       0.160600       2.324000       3115.800000    10.304300      0.171900       6.130000       0.000000       0.000000       0.066400       0.253900       19.085000      41.955000      22.870000      18.997400      0.199900       1.000000      
1847.000000    34.920000      2.122400       0.195300       1.941000       2780.600000    8.583200       0.193000       4.970000       0.000000       0.000000       0.132800       0.279700       19.095000      41.978000      22.882000      14.574100      0.210200       1.000000      
1848.000000    34.910000      2.156400       0.162200       2.143000       2998.300000    9.359800       0.220500       6.430000       0.000000       0.000000       0.139000       0.261600       19.106000      42.000000      22.895000      16.436400      0.240400       1.000000      
1849.000000    28.600000      2.168700       0.159000       2.215000       2887.600000    9.674000       0.135500       4.840000       0.000000       0.000000       0.068700       0.262600       19.116000      42.023000      22.907000      17.242500      0.141300       1.000000      
1850.000000    31.200000      2.192400       0.140200       3.373000       3017.300000    10.034000      0.168900       6.500000       0.000000       0.000000       0.098700       0.250400       19.126000      42.046000      22.919000      18.213300      0.188400       1.000000      
1851.000000    32.100000      2.158300       0.155700       2.087000       2986.500000    10.002700      0.120400       5.650000       0.000000       0.000000       0.060800       0.256900       19.137000      42.068000      22.932000      18.123800      0.157000       1.000000      
1852.000000    32.640000      2.177600       0.156700       3.540000       2965.300000    10.000000      0.140200       6.570000       0.000000       0.000000       0.069000       0.254800       19.147000      42.091000      22.944000      18.113300      0.151400       1.000000      
1853.000000    37.830000      2.162100       0.208300       2.038000       2531.800000    7.660400       0.187500       5.480000       0.000000       1.000000       0.236600       0.268800       19.157000      42.114000      22.957000      12.546000      0.195200       1.000000      
1854.000000    48.850000      2.142800       0.199800       1.360000       2508.700000    7.112100       0.220700       4.130000       0.000000       1.000000       0.268500       0.277600       19.168000      42.137000      22.969000      11.427300      0.240700       1.000000      
1855.000000    42.800000      2.156300       0.188400       2.013000       2544.400000    7.888800       0.152100       4.620000       0.000000       1.000000       0.200900       0.271000       19.178000      42.159000      22.981000      13.026000      0.166900       1.000000      
1856.000000    45.400000      2.097500       0.215500       0.992000       2518.500000    6.703100       0.259700       4.010000       0.000000       1.000000       0.264900       0.291500       19.188000      42.182000      22.994000      10.625500      0.270900       1.000000      
1857.000000    39.150000      2.153100       0.192800       3.144000       2630.700000    7.872400       0.225400       4.590000       0.000000       1.000000       0.199800       0.280200       19.199000      42.205000      23.006000      12.989600      0.223200       1.000000      
1858.000000    51.630000      2.091600       0.198700       1.706000       2461.800000    6.394800       0.228800       4.240000       0.000000       1.000000       0.281600       0.294200       19.209000      42.228000      23.019000      10.037900      0.274700       1.000000      
1859.000000    45.760000      2.144300       0.171600       2.530000       2611.400000    7.524600       0.219300       5.470000       0.000000       1.000000       0.266800       0.267300       19.219000      42.250000      23.031000      12.260400      0.246700       1.000000      
1860.000000    49.430000      2.216700       0.285600       0.912000       3051.600000    9.343600       0.245100       4.980000       0.000000       1.000000       0.202000       0.268600       19.230000      42.273000      23.043000      16.378000      0.273900       0.000000      
1861.000000    42.520000      2.232700       0.257600       0.476000       3100.800000    9.580900       0.245000       5.120000       0.000000       1.000000       0.218400       0.257000       19.240000      42.296000      23.056000      16.983500      0.275200       0.000000      
1862.000000    38.260000      2.246100       0.246800       0.937000       3297.800000    10.685000      0.242200       6.560000       0.000000       1.000000       0.143300       0.251000       19.250000      42.318000      23.068000      20.112200      0.256300       0.000000      
1863.000000    52.660000      2.207400       0.301600       0.633000       2752.500000    7.712300       0.254600       4.710000       0.000000       1.000000       0.295300       0.279400       19.261000      42.341000      23.081000      12.651400      0.293300       0.000000      
1864.000000    47.900000      2.216100       0.296700       0.363000       2761.200000    7.291800       0.301800       3.840000       0.000000       1.000000       0.308400       0.289500       19.271000      42.364000      23.093000      11.786600      0.320500       0.000000      
1865.000000    41.880000      2.197200       0.267700       0.479000       2945.700000    8.868400       0.221300       5.120000       0.000000       1.000000       0.224600       0.271300       19.281000      42.387000      23.105000      15.223300      0.271000       0.000000      
1866.000000    50.820000      2.234000       0.284600       0.423000       3085.900000    9.375600       0.261400       5.310000       0.000000       1.000000       0.231500       0.259400       19.292000      42.409000      23.118000      16.462500      0.284500       0.000000      
1867.000000    42.300000      2.263700       0.256300       0.893000       3187.700000    10.172500      0.255200       7.250000       0.000000       1.000000       0.213000       0.243100       19.302000      42.432000      23.130000      18.593200      0.265400       0.000000      
1868.000000    47.980000      2.186700       0.344900       0.579000       2574.200000    6.797100       0.281300       4.390000       1.000000       1.000000       0.304800       0.299500       19.312000      42.455000      23.142000      10.809600      0.298500       0.000000      
1869.000000    53.240000      2.194200       0.292700       0.409000       2795.800000    8.132500       0.247200       4.220000       0.000000       1.000000       0.239900       0.286100       19.323000      42.478000      23.155000      13.555700      0.275600       0.000000      
