~Version Information
VERS.                          2.0 : CWLS LAS LOG DATA FORMAT VERSION 2.0
WRAP.                          NO  : One line per depth step
~Well Information
#MNEM.MEAS UNIT            DATA             DESCRIPTION
STRT .M          1000.0000              : First depth
STOP .M          4200.0000              : Last depth
STEP .M             1.0000              : Step
NULL .      -999.25                      : Null value
WELL .      AGB-02                      : Well name
~Curve Information
#MNEM .UNIT                    DESCRIPTION
DEPT      .M                   : DEPT
GR        .API                 : GR
RHOB      .G/C3                : RHOB
NPHI      .V/V                 : NPHI
RT        .OHMM                : RT
VP        .M/S                 : VP
E_STAT    .GPA                 : E_STAT
NU_STAT   .-                   : NU_STAT
UCS       .MPA                 : UCS
IS_CORE   .-                   : IS_CORE
FACIES    .-                   : FACIES
VSH_TRUE  .V/V                 : VSH_TRUE
PHI_TRUE  .V/V                 : PHI_TRUE
PP_MPA    .MPA                 : PP_MPA
SV_MPA    .MPA                 : SV_MPA
SIG_EFF_MPA.MPA                 : SIG_EFF_MPA
E_DYN     .GPA                 : E_DYN
NU_DYN    .-                   : NU_DYN
IS_HC     .-                   : IS_HC
~Parameter Information
# Generated by GeoMech-LogML synthetic generator (Agbada-like physics).
~A
# ...
1841.000000    90.190000      2.116700       0.413500       1.004000       1450.000000    1.171600       0.371700       2.780000       0.000000       3.000000       0.837500       0.329100       18.257000      45.213000      26.956000      1.813300       0.416000       0.000000      
1842.000000    93.820000      2.118900       0.426200       0.624000       1450.000000    1.172800       0.392800       2.210000       0.000000       3.000000       0.846000       0.352000       18.267000      45.238000      26.971000      1.815200       0.416000       0.000000      
1843.000000    93.770000      2.152600       0.382300       1.274000       1568.200000    1.202300       0.392900       3.890000       0.000000       3.000000       0.806000       0.312600       18.277000      45.262000      26.986000      1.862200       0.429900       0.000000      
1844.000000    87.860000      2.143300       0.397200       1.149000       1471.200000    1.188300       0.390500       2.670000       0.000000       3.000000       0.789600       0.325100       18.287000      45.287000      27.000000      1.839700       0.418800       0.000000      
1845.000000    89.070000      2.105500       0.409200       0.733000       1450.000000    1.165700       0.386400       2.510000       0.000000       3.000000       0.837300       0.329600       18.296000      45.312000      27.015000      1.803700       0.416000       0.000000      
1846.000000    93.210000      2.103800       0.428900       1.265000       1450.000000    1.164900       0.365800       2.990000       0.000000       3.000000       0.858000       0.329700       18.306000      45.336000      27.030000      1.802300       0.416000       0.000000      
1847.000000    96.040000      2.094700       0.445000       0.442000       1450.000000    1.160000       0.389700       2.600000       0.000000       3.000000       0.862500       0.364400       18.316000      45.361000      27.044000      1.794500       0.416000       0.000000      
1848.000000    95.200000      2.148600       0.378500       1.075000       1512.500000    1.195400       0.387100       3.320000       0.000000       3.000000       0.844900       0.312900       18.326000      45.385000      27.059000      1.850800       0.423800       0.000000      
1849.000000    94.480000      2.147100       0.390600       0.608000       1549.100000    1.197900       0.403100       3.140000       0.000000       3.000000       0.821400       0.317000       18.336000      45.410000      27.074000      1.854900       0.427900       0.000000      
1850.000000    100.510000     2.142000       0.398200       0.913000       1450.000000    1.185400       0.405400       3.390000       0.000000       3.000000       0.901800       0.319500       18.346000      45.434000      27.088000      1.834900       0.416000       0.000000      
1851.000000    88.000000      2.150200       0.363100       0.732000       1591.700000    1.203100       0.391600       3.340000       0.000000       3.000000       0.802600       0.303000       18.356000      45.459000      27.103000      1.863100       0.432200       0.000000      
1852.000000    95.130000      2.090500       0.446900       1.929000       1450.000000    1.157700       0.394900       3.090000       0.000000       3.000000       0.906000       0.351800       18.366000      45.483000      27.118000      1.790800       0.416000       0.000000      
1853.000000    106.170000     2.082700       0.433800       2.445000       1450.000000    1.153500       0.370600       2.780000       0.000000       3.000000       0.973200       0.354800       18.376000      45.508000      27.132000      1.784100       0.416000       0.000000      
1854.000000    96.960000      2.125600       0.408400       0.754000       1450.000000    1.176500       0.376200       2.750000       0.000000       3.000000       0.858200       0.333700       18.386000      45.533000      27.147000      1.820900       0.416000       0.000000      
1855.000000    93.050000      2.147600       0.399800       0.772000       1450.000000    1.188300       0.381400       3.670000       0.000000       3.000000       0.857800       0.318500       18.396000      45.557000      27.161000      1.839800       0.416000       0.000000      
1856.000000    90.140000      2.120500       0.404600       1.141000       1450.000000    1.173700       0.398100       2.600000       0.000000       3.000000       0.841300       0.332800       18.406000      45.582000      27.176000      1.816600       0.416000       0.000000      
1857.000000    96.180000      2.047100       0.430800       1.105000       1450.000000    1.134100       0.387700       2.930000       0.000000       3.000000       0.883800       0.350700       18.415000      45.606000      27.191000      1.753600       0.416000       0.000000      
1858.000000    97.030000      2.091300       0.414300       0.949000       1450.000000    1.157800       0.393100       3.060000       0.000000       3.000000       0.856600       0.341200       18.425000      45.631000      27.205000      1.791500       0.416000       0.000000      
1859.000000    92.810000      2.166700       0.394100       0.922000       1661.400000    1.216700       0.405800       3.510000       0.000000       3.000000       0.827900       0.303900       18.435000      45.655000      27.220000      1.885600       0.438500       0.000000      
1860.000000    96.030000      2.161800       0.396100       0.609000       1501.200000    1.200800       0.369500       3.240000       0.000000       3.000000       0.888800       0.312400       18.445000      45.680000      27.235000      1.860400       0.422500       0.000000      
1861.000000    99.990000      2.122300       0.424300       1.864000       1450.000000    1.174200       0.384300       3.070000       0.000000       3.000000       0.933900       0.336000       18.455000      45.705000      27.249000      1.818100       0.416000       0.000000      
1862.000000    91.240000      2.113700       0.395300       1.009000       1464.300000    1.171000       0.377100       3.730000       0.000000       3.000000       0.821700       0.324800       18.465000      45.729000      27.264000      1.813100       0.417900       0.000000      
1863.000000    97.000000      2.136400       0.382300       0.460000       1450.000000    1.181600       0.384600       3.070000       0.000000       3.000000       0.868500       0.326300       18.475000      45.754000      27.279000      1.830200       0.416000       0.000000      
1864.000000    89.420000      2.166800       0.378100       1.171000       1563.000000    1.208700       0.391300       4.090000       0.000000       3.000000       0.848800       0.306700       18.485000      45.778000      27.293000      1.873800       0.429300       0.000000      
1865.000000    89.480000      2.168800       0.407500       0.968000       1450.000000    1.198700       0.383200       3.240000       0.000000       3.000000       0.869900       0.313200       18.495000      45.803000      27.308000      1.858000       0.416000       0.000000      
1866.000000    95.830000      2.137500       0.411700       1.338000       1450.000000    1.181800       0.360600       3.740000       0.000000       3.000000       0.865600       0.324100       18.505000      45.827000      27.323000      1.831100       0.416000       0.000000      
1867.000000    97.450000      2.107500       0.410600       1.144000       1450.000000    1.165500       0.384500       3.360000       0.000000       3.000000       0.870700       0.345700       18.515000      45.852000      27.337000      1.805400       0.416000       0.000000      
1868.000000    99.330000      2.204500       0.370500       0.945000       1469.200000    1.219500       0.401000       4.160000       0.000000       3.000000       0.900500       0.289900       18.525000      45.876000      27.352000      1.891900       0.418500       0.000000      
1869.000000    102.040000     2.101500       0.431700       2.008000       1450.000000    1.162100       0.380100       3.180000       0.000000       3.000000       0.948800       0.353300       18.535000      45.901000      27.366000      1.800300       0.416000       0.000000      
