~Version Information
VERS.                          2.0 : CWLS LAS LOG DATA FORMAT VERSION 2.0
WRAP.                          NO  : One line per depth step
~Well Information
#MNEM.MEAS UNIT            DATA             DESCRIPTION
STRT .M          1000.0000              : First depth
STOP .M          4200.0000              : Last depth
STEP .M             1.0000              : Step
NULL .      -999.25                      : Null value
WELL .      AGB-03                      : Well name
~Curve Information
#MNEM .UNIT                    DESCRIPTION
DEPT      .M                   : DEPT
GR        .API                 : GR
RHOB      .G/C3                : RHOB
NPHI      .V/V                 : NPHI
RT        .OHMM                : RT
VP        .M/S                 : VP
E_STAT    .GPA                 : E_STAT
NU_STAT   .-                   : NU_STAT
UCS       .MPA                 : UCS
IS_CORE   .-                   : IS_CORE
FACIES    .-                   : FACIES
VSH_TRUE  .V/V                 : VSH_TRUE
PHI_TRUE  .V/V                 : PHI_TRUE
PP_MPA    .MPA                 : PP_MPA
SV_MPA    .MPA                 : SV_MPA
SIG_EFF_MPA.MPA                 : SIG_EFF_MPA
E_DYN     .GPA                 : E_DYN
NU_DYN    .-                   : NU_DYN
IS_HC     .-                   : IS_HC
~Parameter Information
# Generated by GeoMech-LogML synthetic generator (Agbada-like physics).
~A
# ...
2682.000000    27.180000      2.343700       0.164300       1.075000       4171.400000    13.982000      0.179800       14.830000      0.000000       0.000000       0.052500       0.179700       27.121000      65.182000      38.061000      36.156800      0.211500       0.000000      
2683.000000    29.540000      2.349000       0.170200       2.320000       4286.200000    13.981400      0.223700       19.930000      0.000000       0.000000       0.052700       0.177700       27.131000      65.206000      38.075000      37.122700      0.231700       0.000000      
2684.000000    25.870000      2.365900       0.167200       1.897000       4126.300000    13.988400      0.177800       14.080000      0.000000       0.000000       0.048800       0.176600       27.141000      65.231000      38.090000      36.570400      0.192900       0.000000      
2685.000000    22.870000      2.293400       0.150100       36.984000      3645.200000    13.233700      0.173400       11.860000      0.000000       0.000000       0.061300       0.203100       27.151000      65.255000      38.104000      28.009600      0.181900       1.000000      
2686.000000    26.770000      2.371800       0.170500       2.292000       4302.700000    13.938500      0.196200       19.970000      0.000000       0.000000       0.025900       0.175100       27.161000      65.279000      38.118000      38.807000      0.213700       0.000000      
2687.000000    34.390000      2.283200       0.129300       18.016000      3605.500000    12.925200      0.181600       13.390000      1.000000       0.000000       0.129000       0.195600       27.171000      65.304000      38.132000      26.408300      0.208800       1.000000      
2688.000000    31.690000      2.286100       0.095300       24.400000      3678.100000    13.301800      0.157400       14.960000      0.000000       0.000000       0.107100       0.182200       27.181000      65.328000      38.146000      28.360600      0.184000       1.000000      
2689.000000    30.070000      2.305300       0.086200       66.342000      3604.300000    13.407700      0.104200       14.970000      0.000000       0.000000       0.063600       0.181300       27.192000      65.352000      38.161000      28.988900      0.118800       1.000000      
2690.000000    25.430000      2.373900       0.151000       2.005000       4234.300000    13.969900      0.171100       23.160000      0.000000       0.000000       0.060900       0.161500       27.202000      65.376000      38.175000      38.380200      0.198500       0.000000      
2691.000000    21.820000      2.344100       0.179800       2.890000       4301.400000    13.977900      0.174500       15.190000      0.000000       0.000000       0.020000       0.178500       27.212000      65.401000      38.189000      38.253900      0.215200       0.000000      
2692.000000    30.090000      2.284900       0.129600       21.820000      3531.400000    13.058700      0.132500       12.060000      0.000000       0.000000       0.092500       0.192500       27.222000      65.425000      38.203000      26.999900      0.149300       1.000000      
2693.000000    30.690000      2.350100       0.189800       1.577000       4181.100000    13.995600      0.225500       16.790000      0.000000       0.000000       0.097600       0.175500       27.232000      65.449000      38.217000      35.147500      0.235100       0.000000      
2694.000000    30.660000      2.370400       0.177300       1.557000       4124.500000    14.011100      0.185400       16.300000      0.000000       0.000000       0.071300       0.179700       27.242000      65.474000      38.231000      35.651300      0.213500       0.000000      
2695.000000    65.670000      2.309800       0.252600       1.488000       3075.100000    8.934300       0.300100       7.160000       0.000000       2.000000       0.476000       0.219200       27.252000      65.498000      38.246000      14.530500      0.333900       0.000000      
2696.000000    69.740000      2.324000       0.256500       1.872000       3013.700000    9.036800       0.294700       9.090000       0.000000       2.000000       0.486000       0.212400       27.262000      65.522000      38.260000      14.750600      0.320000       0.000000      
2697.000000    69.130000      2.295800       0.273300       1.152000       3037.700000    8.779000       0.305400       9.090000       0.000000       2.000000       0.506400       0.210100       27.273000      65.547000      38.274000      14.191900      0.332000       0.000000      
2698.000000    72.870000      2.276100       0.290900       1.174000       2726.400000    6.345200       0.344600       6.880000       0.000000       2.000000       0.568900       0.245400       27.283000      65.571000      38.288000      9.499800       0.371300       0.000000      
2699.000000    62.240000      2.315200       0.265300       0.963000       3100.700000    9.468200       0.287200       7.990000       0.000000       2.000000       0.457700       0.212200       27.293000      65.595000      38.302000      15.706000      0.317100       0.000000      
2700.000000    65.730000      2.280100       0.293900       0.933000       2815.400000    7.980500       0.286300       7.820000       0.000000       2.000000       0.517900       0.222200       27.303000      65.619000      38.317000      12.545800      0.322000       0.000000      
2701.000000    66.940000      2.269600       0.279400       1.149000       2764.400000    7.428700       0.290600       7.470000       0.000000       2.000000       0.505200       0.240800       27.313000      65.644000      38.331000      11.473900      0.335400       0.000000      
2702.000000    65.350000      2.313100       0.265200       0.816000       2918.900000    8.378500       0.300900       7.190000       0.000000       2.000000       0.517000       0.216300       27.323000      65.668000      38.345000      13.344300      0.329100       0.000000      
2703.000000    73.240000      2.261900       0.310400       0.958000       2520.900000    6.044600       0.323900       5.240000       0.000000       2.000000       0.575600       0.247300       27.333000      65.692000      38.359000      8.970100       0.349600       0.000000      
2704.000000    64.350000      2.257200       0.267500       0.790000       2884.500000    7.851100       0.308700       7.950000       0.000000       2.000000       0.514000       0.227200       27.343000      65.717000      38.373000      12.284000      0.338300       0.000000      
2705.000000    77.940000      2.316200       0.301300       1.153000       2762.200000    6.924500       0.311400       7.500000       0.000000       2.000000       0.587800       0.226000       27.353000      65.741000      38.388000      10.529500      0.359700       0.000000      
2706.000000    71.860000      2.289900       0.277700       1.273000       2797.900000    7.796400       0.302900       8.130000       0.000000       2.000000       0.498400       0.235500       27.364000      65.765000      38.402000      12.174500      0.328300       0.000000      
2707.000000    73.420000      2.306400       0.289400       1.013000       2696.200000    6.565400       0.334900       8.220000       0.000000       2.000000       0.587100       0.234200       27.374000      65.790000      38.416000      9.879900       0.362000       0.000000      
2708.000000    74.350000      2.273300       0.283400       0.841000       2601.500000    6.276500       0.322800       6.900000       0.000000       2.000000       0.592200       0.236600       27.384000      65.814000      38.430000      9.368900       0.355100       0.000000      
2709.000000    74.920000      2.266600       0.290500       0.786000       2669.800000    5.849000       0.342800       7.000000       0.000000       2.000000       0.594700       0.247600       27.394000      65.838000      38.444000      8.630600       0.380000       0.000000      
2710.000000    73.700000      2.277400       0.303600       2.313000       2629.800000    5.733500       0.364300       6.500000       0.000000       2.000000       0.644000       0.231900       27.404000      65.862000      38.459000      8.434200       0.379600       0.000000      
