~Version Information
VERS.                          2.0 : CWLS LAS LOG DATA FORMAT VERSION 2.0
WRAP.                          NO  : One line per depth step
~Well Information
#MNEM.MEAS UNIT            DATA             DESCRIPTION
STRT .M          1000.0000              : First depth
STOP .M          4200.0000              : Last depth
STEP .M             1.0000              : Step
NULL .      -999.25                      : Null value
WELL .      AGB-01                      : Well name
~Curve Information
#MNEM .UNIT                    DESCRIPTION
DEPT      .M                   : DEPT
GR        .API                 : GR
RHOB      .G/C3                : RHOB
NPHI      .V/V                 : NPHI
RT        .OHMM                : RT
VP        .M/S                 : VP
E_STAT    .GPA                 : E_STAT
NU_STAT   .-                   : NU_STAT
UCS       .MPA                 : UCS
IS_CORE   .-                   : IS_CORE
FACIES    .-                   : FACIES
VSH_TRUE  .V/V                 : VSH_TRUE
PHI_TRUE  .V/V                 : PHI_TRUE
PP_MPA    .MPA                 : PP_MPA
SV_MPA    .MPA                 : SV_MPA
SIG_EFF_MPA.MPA                 : SIG_EFF_MPA
E_DYN     .GPA                 : E_DYN
NU_DYN    .-                   : NU_DYN
IS_HC     .-                   : IS_HC
~Parameter Information
# Generated by GeoMech-LogML synthetic generator (Agbada-like physics).
~A
# ...
2682.000000    27.880000      2.353100       0.205300       0.812000       3993.300000    12.897600      0.226900       13.560000      0.000000       0.000000       0.108500       0.197900       27.728000      60.955000      33.227000      31.005200      0.254500       0.000000      
2683.000000    29.630000      2.347300       0.175300       1.402000       4062.300000    13.079600      0.180300       14.140000      0.000000       0.000000       0.020000       0.197600       27.738000      60.978000      33.239000      34.333300      0.211700       0.000000      
2684.000000    26.620000      2.267100       0.237900       0.910000       3614.900000    12.241400      0.172000       9.760000       0.000000       0.000000       0.085200       0.227900       27.749000      61.000000      33.252000      26.329500      0.209700       0.000000      
2685.000000    28.760000      2.320000       0.200600       0.884000       3872.400000    12.749400      0.204700       13.540000      0.000000       0.000000       0.088100       0.209900       27.759000      61.023000      33.264000      29.643700      0.237500       0.000000      
2686.000000    34.260000      2.294700       0.189500       1.383000       3790.300000    12.606100      0.197100       13.860000      0.000000       0.000000       0.127500       0.199000       27.769000      61.046000      33.277000      28.556100      0.227300       0.000000      
2687.000000    29.260000      2.321600       0.203400       2.179000       3888.500000    12.858700      0.214700       11.570000      0.000000       0.000000       0.072700       0.204600       27.780000      61.069000      33.289000      30.686600      0.221300       0.000000      
2688.000000    30.190000      2.321300       0.177200       0.999000       3974.900000    12.886600      0.232400       12.190000      0.000000       0.000000       0.087600       0.200500       27.790000      61.091000      33.301000      30.998400      0.242200       0.000000      
2689.000000    35.720000      2.311800       0.201500       0.726000       3890.500000    12.653500      0.237200       10.730000      0.000000       0.000000       0.096500       0.214800       27.800000      61.114000      33.314000      28.923600      0.254300       0.000000      
2690.000000    28.290000      2.295700       0.200000       1.651000       3838.800000    12.748800      0.184800       12.440000      1.000000       0.000000       0.081000       0.206200       27.811000      61.137000      33.326000      29.686800      0.218800       0.000000      
2691.000000    30.580000      2.320100       0.191600       1.818000       4025.100000    12.812500      0.233900       13.190000      0.000000       0.000000       0.107100       0.203400       27.821000      61.159000      33.339000      30.263500      0.267200       0.000000      
2692.000000    32.230000      2.340700       0.192000       1.418000       3846.800000    12.829900      0.186500       16.280000      0.000000       0.000000       0.103900       0.196000       27.831000      61.182000      33.351000      30.434200      0.217800       0.000000      
2693.000000    25.810000      2.343000       0.193100       0.892000       3945.000000    12.933000      0.204300       15.940000      0.000000       0.000000       0.080600       0.198100       27.842000      61.205000      33.363000      31.585600      0.227300       0.000000      
2694.000000    30.770000      2.319500       0.213300       0.883000       3782.300000    12.654700      0.188300       13.450000      0.000000       0.000000       0.106100       0.205900       27.852000      61.228000      33.376000      28.947500      0.222700       0.000000      
2695.000000    44.500000      2.331800       0.208900       1.574000       3817.300000    12.527400      0.237800       11.840000      0.000000       0.000000       0.151400       0.202900       27.862000      61.250000      33.388000      28.055800      0.254800       0.000000      
2696.000000    23.670000      2.333300       0.162600       1.134000       4012.300000    13.060200      0.162900       16.180000      0.000000       0.000000       0.024300       0.193800       27.873000      61.273000      33.400000      33.995700      0.195400       0.000000      
2697.000000    22.430000      2.293300       0.181000       1.274000       3936.400000    12.949100      0.177400       10.990000      0.000000       0.000000       0.020000       0.210100       27.883000      61.296000      33.413000      31.783900      0.204900       0.000000      
2698.000000    26.880000      2.312200       0.195600       0.855000       4052.200000    13.035200      0.197800       15.030000      0.000000       0.000000       0.032100       0.199400       27.893000      61.319000      33.425000      33.246000      0.220200       0.000000      
2699.000000    28.500000      2.332800       0.179600       1.160000       3974.500000    13.027800      0.188700       14.860000      0.000000       0.000000       0.049200       0.192900       27.904000      61.341000      33.438000      33.054400      0.202700       0.000000      
2700.000000    32.150000      2.327500       0.228000       1.048000       3785.900000    12.531100      0.208300       13.350000      0.000000       0.000000       0.120200       0.212800       27.914000      61.364000      33.450000      28.054200      0.245000       0.000000      
2701.000000    30.430000      2.339200       0.177500       1.646000       4003.800000    13.008800      0.204400       11.930000      1.000000       0.000000       0.053600       0.199700       27.924000      61.387000      33.462000      32.624600      0.224500       0.000000      
2702.000000    31.550000      2.304500       0.215600       0.732000       3903.100000    12.582200      0.257000       11.380000      0.000000       0.000000       0.109900       0.215700       27.935000      61.409000      33.475000      28.376400      0.265400       0.000000      
2703.000000    38.920000      2.275300       0.231300       1.175000       3822.600000    11.988400      0.261800       9.870000       1.000000       0.000000       0.156400       0.227500       27.945000      61.432000      33.487000      25.071100      0.294500       0.000000      
2704.000000    32.770000      2.329500       0.174600       1.400000       3881.200000    12.876700      0.195600       14.030000      0.000000       0.000000       0.091900       0.197000       27.955000      61.455000      33.500000      30.793700      0.218700       0.000000      
2705.000000    27.160000      2.319300       0.204700       1.119000       3960.600000    12.822500      0.223000       10.480000      0.000000       0.000000       0.080000       0.211400       27.966000      61.478000      33.512000      30.230400      0.251500       0.000000      
2706.000000    42.500000      2.329200       0.223100       1.419000       3609.800000    11.721800      0.244100       11.070000      0.000000       0.000000       0.236400       0.209200       27.976000      61.500000      33.524000      23.874500      0.277600       0.000000      
2707.000000    29.130000      2.368100       0.142900       1.570000       4160.600000    13.089500      0.188000       14.960000      0.000000       0.000000       0.029900       0.182200       27.986000      61.523000      33.537000      36.317800      0.212000       0.000000      
2708.000000    33.010000      2.359200       0.183700       1.263000       3874.800000    12.945200      0.174300       11.530000      0.000000       0.000000       0.083800       0.196500       27.997000      61.546000      33.549000      31.451400      0.210300       0.000000      
2709.000000    28.440000      2.317700       0.208900       1.325000       3938.800000    12.926700      0.208600       10.960000      0.000000       0.000000       0.065000       0.204600       28.007000      61.569000      33.562000      31.198500      0.226300       0.000000      
2710.000000    26.140000      2.325800       0.166400       1.126000       4060.500000    13.097600      0.169800       15.670000      0.000000       0.000000       0.020000       0.195000       28.017000      61.591000      33.574000      34.268600      0.205600       0.000000      
