~Version Information
VERS.                          2.0 : CWLS LAS LOG DATA FORMAT VERSION 2.0
WRAP.                          NO  : One line per depth step
~Well Information
#MNEM.MEAS UNIT            DATA             DESCRIPTION
STRT .M          1000.0000              : First depth
STOP .M          4200.0000              : Last depth
STEP .M             1.0000              : Step
NULL .      -999.25                      : Null value
WELL .      AGB-02                      : Well name
~Curve Information
#MNEM .UNIT                    DESCRIPTION
DEPT      .M                   : DEPT
GR        .API                 : GR
RHOB      .G/C3                : RHOB
NPHI      .V/V                 : NPHI
RT        .OHMM                : RT
VP        .M/S                 : VP
E_STAT    .GPA                 : E_STAT
NU_STAT   .-                   : NU_STAT
UCS       .MPA                 : UCS
IS_CORE   .-                   : IS_CORE
FACIES    .-                   : FACIES
VSH_TRUE  .V/V                 : VSH_TRUE
PHI_TRUE  .V/V                 : PHI_TRUE
PP_MPA    .MPA                 : PP_MPA
SV_MPA    .MPA                 : SV_MPA
SIG_EFF_MPA.MPA                 : SIG_EFF_MPA
E_DYN     .GPA                 : E_DYN
NU_DYN    .-                   : NU_DYN
IS_HC     .-                   : IS_HC
~Parameter Information
# Generated by GeoMech-LogML synthetic generator (Agbada-like physics).
~A
# ...
4161.000000    35.300000      2.299200       0.209700       0.683000       3492.800000    10.109800      0.176900       13.000000      0.000000       0.000000       0.104700       0.210500       77.791000      102.190000     24.399000      25.495600      0.191800       0.000000      
4162.000000    31.290000      2.353400       0.185600       1.476000       3736.000000    10.451400      0.172300       13.690000      0.000000       0.000000       0.095100       0.188300       77.849000      102.215000     24.366000      29.383700      0.204800       0.000000      
4163.000000    19.850000      2.344500       0.181700       0.954000       3894.100000    10.503600      0.191400       14.710000      0.000000       0.000000       0.034700       0.193300       77.906000      102.240000     24.334000      31.601100      0.209600       0.000000      
4164.000000    99.010000      2.156100       0.414500       1.763000       1450.000000    1.190900       0.388900       3.040000       0.000000       3.000000       0.887500       0.322800       77.963000      102.264000     24.301000      1.847000       0.416000       0.000000      
4165.000000    99.300000      2.179500       0.395300       1.055000       1488.100000    1.207500       0.392500       3.510000       0.000000       3.000000       0.853800       0.316200       78.021000      102.289000     24.268000      1.873600       0.420900       0.000000      
4166.000000    88.450000      2.181400       0.414800       1.253000       1450.000000    1.204500       0.384300       3.200000       0.000000       3.000000       0.865900       0.320200       78.078000      102.313000     24.235000      1.868700       0.416000       0.000000      
4167.000000    91.330000      2.149200       0.408700       1.266000       1518.400000    1.194200       0.380600       2.830000       0.000000       3.000000       0.829500       0.319500       78.136000      102.338000     24.202000      1.852200       0.424500       0.000000      
4168.000000    94.280000      2.107900       0.428300       0.993000       1450.000000    1.165100       0.375000       2.540000       0.000000       3.000000       0.845100       0.348600       78.193000      102.362000     24.169000      1.805800       0.416000       0.000000      
4169.000000    100.280000     2.134900       0.421200       1.323000       1450.000000    1.179500       0.388000       2.880000       0.000000       3.000000       0.890700       0.323600       78.251000      102.387000     24.136000      1.828900       0.416000       0.000000      
4170.000000    97.630000      2.093100       0.425100       2.067000       1450.000000    1.157100       0.384700       2.820000       0.000000       3.000000       0.923800       0.324900       78.308000      102.411000     24.103000      1.793100       0.416000       0.000000      
4171.000000    91.980000      2.142600       0.391400       1.613000       1451.400000    1.183800       0.398200       3.400000       0.000000       3.000000       0.832200       0.313800       78.366000      102.436000     24.070000      1.835700       0.416200       0.000000      
4172.000000    92.800000      2.107400       0.426800       2.204000       1450.000000    1.164800       0.378300       2.490000       0.000000       3.000000       0.906500       0.332400       78.423000      102.461000     24.037000      1.805300       0.416000       0.000000      
4173.000000    98.820000      2.140100       0.404000       1.869000       1450.000000    1.182300       0.392500       2.760000       0.000000       3.000000       0.928600       0.313200       78.481000      102.485000     24.004000      1.833300       0.416000       0.000000      
4174.000000    90.720000      2.110200       0.399400       0.766000       1457.200000    1.167100       0.377800       3.200000       0.000000       3.000000       0.817400       0.335000       78.539000      102.510000     23.971000      1.809000       0.416900       0.000000      
4175.000000    95.690000      2.130000       0.400300       0.594000       1450.000000    1.177000       0.388600       2.920000       0.000000       3.000000       0.863000       0.324600       78.597000      102.534000     23.938000      1.824700       0.416000       0.000000      
4176.000000    92.260000      2.149700       0.378100       1.553000       1450.000000    1.187600       0.381100       3.360000       0.000000       3.000000       0.890700       0.311200       78.654000      102.559000     23.904000      1.841600       0.416000       0.000000      
4177.000000    93.480000      2.136900       0.392200       1.847000       1450.000000    1.180700       0.379700       2.650000       0.000000       3.000000       0.869500       0.316500       78.712000      102.583000     23.871000      1.830600       0.416000       0.000000      
4178.000000    102.030000     2.055600       0.431100       1.935000       1450.000000    1.137100       0.384600       2.190000       0.000000       3.000000       0.936400       0.361900       78.770000      102.608000     23.838000      1.761000       0.416000       0.000000      
4179.000000    95.980000      2.118000       0.410400       2.158000       1450.000000    1.170700       0.382400       2.290000       0.000000       3.000000       0.907200       0.335400       78.828000      102.633000     23.805000      1.814400       0.416000       0.000000      
4180.000000    88.460000      2.142500       0.370000       0.644000       1487.000000    1.187800       0.371700       3.070000       0.000000       3.000000       0.755500       0.319900       78.886000      102.657000     23.771000      1.841600       0.420800       0.000000      
4181.000000    97.210000      2.135300       0.423300       1.766000       1450.000000    1.180100       0.384600       2.740000       0.000000       3.000000       0.856300       0.332000       78.944000      102.682000     23.738000      1.829200       0.416000       0.000000      
4182.000000    90.440000      2.152400       0.381800       1.380000       1614.200000    1.204300       0.384800       3.450000       1.000000       3.000000       0.782400       0.319200       79.002000      102.706000     23.704000      1.867800       0.434300       0.000000      
4183.000000    96.510000      2.130600       0.426300       2.070000       1450.000000    1.177700       0.398500       3.120000       0.000000       3.000000       0.920600       0.342400       79.060000      102.731000     23.671000      1.825200       0.416000       0.000000      
4184.000000    94.880000      2.107400       0.406000       1.165000       1450.000000    1.165200       0.381000       3.090000       0.000000       3.000000       0.839400       0.336200       79.118000      102.755000     23.638000      1.805300       0.416000       0.000000      
4185.000000    94.560000      2.189500       0.391600       1.196000       1450.000000    1.209300       0.393100       2.850000       0.000000       3.000000       0.823000       0.319800       79.176000      102.780000     23.604000      1.875600       0.416000       0.000000      
4186.000000    96.860000      2.147000       0.395200       1.067000       1450.000000    1.186600       0.391000       3.460000       0.000000       3.000000       0.845700       0.319800       79.234000      102.804000     23.570000      1.839300       0.416000       0.000000      
4187.000000    98.390000      2.086200       0.445600       1.895000       1450.000000    1.154000       0.371500       2.390000       0.000000       3.000000       0.921700       0.359600       79.292000      102.829000     23.537000      1.787200       0.416000       0.000000      
4188.000000    101.310000     2.134700       0.408900       0.750000       1450.000000    1.180100       0.377100       2.980000       0.000000       3.000000       0.868700       0.328300       79.350000      102.854000     23.503000      1.828700       0.416000       0.000000      
4189.000000    91.620000      2.051200       0.443500       0.955000       1450.000000    1.135300       0.381300       2.150000       0.000000       3.000000       0.838100       0.366800       79.409000      102.878000     23.470000      1.757200       0.416000       0.000000      
