~Version Information
VERS.                          2.0 : CWLS LAS LOG DATA FORMAT VERSION 2.0
WRAP.                          NO  : One line per depth step
~Well Information
#MNEM.MEAS UNIT            DATA             DESCRIPTION
STRT .M          1000.0000              : First depth
STOP .M          4200.0000              : Last depth
STEP .M             1.0000              : Step
NULL .      -999.25                      : Null value
WELL .      AGB-03                      : Well name
~Curve Information
#MNEM .UNIT                    DESCRIPTION
DEPT      .M                   : DEPT
GR        .API                 : GR
RHOB      .G/C3                : RHOB
NPHI      .V/V                 : NPHI
RT        .OHMM                : RT
VP        .M/S                 : VP
E_STAT    .GPA                 : E_STAT
NU_STAT   .-                   : NU_STAT
UCS       .MPA                 : UCS
IS_CORE   .-                   : IS_CORE
FACIES    .-                   : FACIES
VSH_TRUE  .V/V                 : VSH_TRUE
PHI_TRUE  .V/V                 : PHI_TRUE
PP_MPA    .MPA                 : PP_MPA
SV_MPA    .MPA                 : SV_MPA
SIG_EFF_MPA.MPA                 : SIG_EFF_MPA
E_DYN     .GPA                 : E_DYN
NU_DYN    .-                   : NU_DYN
IS_HC     .-                   : IS_HC
~Parameter Information
# Generated by GeoMech-LogML synthetic generator (Agbada-like physics).
~A
# ...
4161.000000    54.410000      2.228200       0.291400       0.808000       2652.900000    7.643400       0.260000       4.950000       0.000000       1.000000       0.333200       0.271200       80.685000      101.127000     20.442000      11.906900      0.291900       0.000000      
4162.000000    51.090000      2.244500       0.282900       0.536000       3062.900000    9.309000       0.300900       5.210000       0.000000       1.000000       0.266800       0.256600       80.755000      101.151000     20.397000      15.372900      0.306000       0.000000      
4163.000000    37.950000      2.218000       0.264800       0.785000       2937.400000    9.357900       0.252400       4.800000       0.000000       1.000000       0.220600       0.265100       80.824000      101.175000     20.351000      15.483300      0.264900       0.000000      
4164.000000    53.520000      2.240200       0.267000       0.878000       2878.900000    8.518800       0.277500       4.490000       0.000000       1.000000       0.326300       0.253400       80.895000      101.200000     20.305000      13.662500      0.303300       0.000000      
4165.000000    40.330000      2.248100       0.276600       0.875000       3027.400000    9.887100       0.257600       5.280000       0.000000       1.000000       0.217800       0.254000       80.965000      101.224000     20.260000      16.715500      0.263600       0.000000      
4166.000000    44.700000      2.264900       0.246100       0.745000       3182.200000    10.323000      0.263900       5.020000       0.000000       1.000000       0.219400       0.245800       81.035000      101.248000     20.214000      17.791900      0.283400       0.000000      
4167.000000    42.470000      2.224900       0.265700       0.902000       2966.700000    9.705800       0.226000       5.640000       0.000000       1.000000       0.212600       0.257000       81.105000      101.273000     20.168000      16.283000      0.251200       0.000000      
4168.000000    44.820000      2.207800       0.270600       0.765000       3072.600000    9.905200       0.252600       4.990000       0.000000       1.000000       0.201400       0.256700       81.175000      101.297000     20.122000      16.756600      0.267900       0.000000      
4169.000000    94.510000      2.024400       0.427000       1.351000       1450.000000    1.298700       0.374200       1.880000       0.000000       3.000000       0.851900       0.372000       81.245000      101.321000     20.076000      1.734200       0.416000       0.000000      
4170.000000    90.310000      2.098800       0.437300       0.962000       1450.000000    1.345300       0.372700       2.340000       0.000000       3.000000       0.819900       0.344600       81.316000      101.346000     20.030000      1.797900       0.416000       0.000000      
4171.000000    88.120000      2.082200       0.412000       1.329000       1450.000000    1.335000       0.386700       2.270000       0.000000       3.000000       0.826200       0.344800       81.386000      101.370000     19.984000      1.783700       0.416000       0.000000      
4172.000000    88.240000      2.083500       0.442300       1.435000       1450.000000    1.335900       0.377100       1.900000       0.000000       3.000000       0.830700       0.363300       81.456000      101.394000     19.938000      1.784900       0.416000       0.000000      
4173.000000    88.550000      2.075500       0.412700       1.192000       1450.000000    1.331000       0.387200       1.860000       0.000000       3.000000       0.804500       0.357400       81.527000      101.419000     19.892000      1.778000       0.416000       0.000000      
4174.000000    96.770000      2.088300       0.418000       1.645000       1450.000000    1.339100       0.385700       2.240000       0.000000       3.000000       0.863500       0.345700       81.597000      101.443000     19.845000      1.789000       0.416000       0.000000      
4175.000000    88.380000      2.126300       0.411200       1.006000       1450.000000    1.362900       0.368700       2.610000       0.000000       3.000000       0.794000       0.332900       81.668000      101.467000     19.799000      1.821500       0.416000       0.000000      
4176.000000    97.610000      2.078300       0.440300       1.070000       1450.000000    1.333000       0.372900       1.720000       0.000000       3.000000       0.841700       0.376600       81.738000      101.491000     19.753000      1.780400       0.416000       0.000000      
4177.000000    98.080000      2.043600       0.455800       1.225000       1450.000000    1.311300       0.382200       1.710000       0.000000       3.000000       0.905300       0.369000       81.809000      101.516000     19.707000      1.750600       0.416000       0.000000      
4178.000000    90.060000      2.049600       0.473700       0.912000       1450.000000    1.315200       0.376600       1.690000       0.000000       3.000000       0.784400       0.385600       81.880000      101.540000     19.660000      1.755800       0.416000       0.000000      
4179.000000    89.600000      2.060700       0.448400       1.201000       1450.000000    1.322300       0.387000       1.780000       0.000000       3.000000       0.813800       0.371700       81.951000      101.564000     19.614000      1.765300       0.416000       0.000000      
4180.000000    98.910000      2.054500       0.444100       2.549000       1450.000000    1.318500       0.376100       1.710000       0.000000       3.000000       0.974800       0.378300       82.021000      101.589000     19.567000      1.760000       0.416000       0.000000      
4181.000000    94.790000      2.101900       0.431500       1.349000       1450.000000    1.348300       0.397900       2.580000       0.000000       3.000000       0.868700       0.340800       82.092000      101.613000     19.521000      1.800600       0.416000       0.000000      
4182.000000    90.000000      2.058000       0.427700       1.400000       1450.000000    1.320900       0.382700       1.970000       0.000000       3.000000       0.833000       0.364300       82.163000      101.637000     19.474000      1.763000       0.416000       0.000000      
4183.000000    93.600000      2.082500       0.419300       1.386000       1450.000000    1.336300       0.388900       1.750000       0.000000       3.000000       0.840300       0.366400       82.234000      101.662000     19.427000      1.784000       0.416000       0.000000      
4184.000000    90.100000      2.090000       0.423100       1.204000       1450.000000    1.341100       0.380800       2.180000       0.000000       3.000000       0.816400       0.359100       82.305000      101.686000     19.381000      1.790400       0.416000       0.000000      
4185.000000    92.050000      2.050100       0.440500       0.833000       1450.000000    1.316300       0.386300       2.120000       0.000000       3.000000       0.801500       0.373200       82.376000      101.710000     19.334000      1.756300       0.416000       0.000000      
4186.000000    87.340000      2.080100       0.437500       1.791000       1450.000000    1.335100       0.390700       1.820000       0.000000       3.000000       0.860900       0.378000       82.447000      101.734000     19.287000      1.781900       0.416000       0.000000      
4187.000000    98.540000      2.087700       0.434900       1.200000       1450.000000    1.339900       0.398200       2.610000       0.000000       3.000000       0.856400       0.352300       82.518000      101.759000     19.240000      1.788400       0.416000       0.000000      
4188.000000    88.430000      2.084800       0.415200       1.408000       1450.000000    1.338200       0.389900       2.530000       0.000000       3.000000       0.797000       0.347200       82.590000      101.783000     19.194000      1.786000       0.416000       0.000000      
4189.000000    93.600000      2.012900       0.455100       1.273000       1450.000000    1.293300       0.381700       1.700000       0.000000       3.000000       0.862600       0.385800       82.661000      101.807000     19.147000      1.724400       0.416000       0.000000      
