~Version Information
VERS.                          2.0 : CWLS LAS LOG DATA FORMAT VERSION 2.0
WRAP.                          NO  : One line per depth step
~Well Information
#MNEM.MEAS UNIT            DATA             DESCRIPTION
STRT .M          1000.0000              : First depth
STOP .M          4200.0000              : Last depth
STEP .M             1.0000              : Step
NULL .      -999.25                      : Null value
WELL .      AGB-02                      : Well name
~Curve Information
#MNEM .UNIT                    DESCRIPTION
DEPT      .M                   : DEPT
GR        .API                 : GR
RHOB      .G/C3                : RHOB
NPHI      .V/V                 : NPHI
RT        .OHMM                : RT
VP        .M/S                 : VP
E_STAT    .GPA                 : E_STAT
NU_STAT   .-                   : NU_STAT
UCS       .MPA                 : UCS
IS_CORE   .-                   : IS_CORE
FACIES    .-                   : FACIES
VSH_TRUE  .V/V                 : VSH_TRUE
PHI_TRUE  .V/V                 : PHI_TRUE
PP_MPA    .MPA                 : PP_MPA
SV_MPA    .MPA                 : SV_MPA
SIG_EFF_MPA.MPA                 : SIG_EFF_MPA
E_DYN     .GPA                 : E_DYN
NU_DYN    .-                   : NU_DYN
IS_HC     .-                   : IS_HC
~Parameter Information
# Generated by GeoMech-LogML synthetic generator (Agbada-like physics).
~A
# ...
1203.000000    74.700000      2.106100       0.350700       0.543000       1918.100000    2.096800       0.385300       3.110000       0.000000       2.000000       0.588100       0.322300       11.930000      29.545000      17.615000      3.330000       0.410100       0.000000      
1204.000000    73.360000      2.136200       0.371300       0.550000       1705.900000    1.619600       0.385300       2.280000       0.000000       2.000000       0.594400       0.342600       11.940000      29.569000      17.629000      2.537600       0.415800       0.000000      
1205.000000    72.710000      2.083600       0.360400       0.390000       1974.600000    2.173900       0.381400       2.820000       0.000000       2.000000       0.566700       0.326500       11.950000      29.594000      17.644000      3.457000       0.411200       0.000000      
1206.000000    67.490000      2.105400       0.393100       0.658000       1847.500000    2.566100       0.337900       2.730000       0.000000       2.000000       0.516300       0.328000       11.960000      29.618000      17.659000      4.124900       0.367100       0.000000      
1207.000000    65.850000      2.118800       0.371600       0.359000       1793.600000    1.733300       0.395300       2.950000       1.000000       2.000000       0.555600       0.351900       11.970000      29.643000      17.673000      2.720700       0.418100       0.000000      
1208.000000    70.640000      2.141700       0.346400       0.474000       2003.700000    3.105100       0.324700       3.150000       0.000000       2.000000       0.494200       0.317300       11.979000      29.667000      17.688000      5.067800       0.361900       0.000000      
1209.000000    68.690000      2.122000       0.388200       0.499000       1910.200000    2.488400       0.343500       2.390000       0.000000       2.000000       0.513300       0.334400       11.989000      29.692000      17.703000      3.985700       0.386000       0.000000      
1210.000000    69.060000      2.100800       0.412900       0.454000       1708.000000    1.623600       0.379800       2.290000       0.000000       2.000000       0.565800       0.352300       11.999000      29.717000      17.717000      2.537800       0.414300       0.000000      
1211.000000    28.020000      2.184900       0.283000       0.306000       3033.500000    8.010500       0.242300       4.330000       0.000000       0.000000       0.105800       0.293800       12.009000      29.741000      17.732000      16.095100      0.269900       0.000000      
1212.000000    26.200000      2.192100       0.290400       0.398000       2852.600000    7.880900       0.199800       3.860000       0.000000       0.000000       0.077800       0.301900       12.019000      29.766000      17.746000      15.694100      0.216900       0.000000      
1213.000000    35.700000      2.138700       0.290400       0.300000       2873.800000    7.087200       0.268700       3.720000       0.000000       0.000000       0.149400       0.308400       12.029000      29.790000      17.761000      13.484000      0.289800       0.000000      
1214.000000    25.470000      2.186900       0.275900       0.438000       3114.500000    8.708800       0.208700       5.670000       0.000000       0.000000       0.058300       0.279800       12.039000      29.815000      17.776000      18.340100      0.228600       0.000000      
1215.000000    32.550000      2.188300       0.269700       0.603000       3074.800000    8.478100       0.228700       5.070000       0.000000       0.000000       0.068100       0.287400       12.049000      29.839000      17.790000      17.532700      0.240700       0.000000      
1216.000000    31.470000      2.157600       0.274200       0.332000       3013.300000    8.114500       0.219800       3.980000       0.000000       0.000000       0.079200       0.295500       12.059000      29.864000      17.805000      16.354600      0.249100       0.000000      
1217.000000    27.130000      2.203300       0.271700       0.590000       3061.600000    8.455900       0.230400       3.730000       0.000000       0.000000       0.075000       0.287700       12.069000      29.888000      17.820000      17.432500      0.242900       0.000000      
1218.000000    39.870000      2.192300       0.290400       0.348000       2884.100000    7.747200       0.222600       4.490000       0.000000       0.000000       0.140500       0.288400       12.079000      29.913000      17.834000      15.242000      0.248400       0.000000      
1219.000000    34.370000      2.166700       0.275200       0.588000       2753.200000    7.599500       0.175600       4.250000       0.000000       0.000000       0.111700       0.294900       12.089000      29.938000      17.849000      14.814900      0.198200       0.000000      
1220.000000    34.370000      2.169300       0.260700       0.300000       3016.200000    8.254300       0.215000       5.760000       0.000000       0.000000       0.090300       0.286300       12.098000      29.962000      17.864000      16.747500      0.239900       0.000000      
1221.000000    30.710000      2.162800       0.310600       0.474000       2931.700000    7.542200       0.263700       3.910000       0.000000       0.000000       0.102100       0.312400       12.108000      29.987000      17.878000      14.640300      0.277100       0.000000      
1222.000000    39.270000      2.135800       0.308400       0.552000       2891.300000    7.442100       0.249400       4.140000       0.000000       0.000000       0.118400       0.306100       12.118000      30.011000      17.893000      14.359000      0.267700       0.000000      
1223.000000    33.170000      2.163100       0.296900       0.417000       2849.300000    7.430700       0.242000       3.640000       0.000000       0.000000       0.132400       0.302500       12.128000      30.036000      17.908000      14.322100      0.261000       0.000000      
1224.000000    25.910000      2.185600       0.266800       0.462000       3163.900000    8.495900       0.251300       4.750000       0.000000       0.000000       0.075100       0.290000       12.138000      30.060000      17.922000      17.492800      0.270400       0.000000      
1225.000000    35.230000      2.232600       0.279200       0.528000       3052.600000    8.778000       0.178700       4.610000       0.000000       0.000000       0.068300       0.276400       12.148000      30.085000      17.937000      18.451300      0.211200       0.000000      
1226.000000    31.750000      2.225900       0.270200       0.738000       3224.500000    8.940000       0.213700       5.940000       0.000000       0.000000       0.108600       0.261600       12.158000      30.109000      17.951000      19.030900      0.256900       0.000000      
1227.000000    32.470000      2.206100       0.263500       0.558000       3051.200000    8.434600       0.232100       4.390000       0.000000       0.000000       0.110200       0.276900       12.168000      30.134000      17.966000      17.271500      0.245000       0.000000      
1228.000000    33.680000      2.173100       0.283800       0.566000       2832.700000    7.949600       0.179100       3.920000       0.000000       0.000000       0.076500       0.297100       12.178000      30.159000      17.981000      15.764700      0.196300       0.000000      
1229.000000    33.790000      2.156800       0.277300       0.435000       2810.800000    7.493000       0.230300       3.620000       0.000000       0.000000       0.142700       0.293300       12.188000      30.183000      17.995000      14.464900      0.239700       0.000000      
1230.000000    32.990000      2.192700       0.275400       0.408000       3045.400000    8.544800       0.204800       4.370000       0.000000       0.000000       0.048300       0.292700       12.198000      30.208000      18.010000      17.620200      0.227200       0.000000      
1231.000000    30.510000      2.198700       0.321600       0.412000       2949.900000    7.923600       0.227500       3.920000       0.000000       0.000000       0.090000       0.305100       12.208000      30.232000      18.025000      15.678400      0.258700       0.000000      
