~Version Information
VERS.                          2.0 : CWLS LAS LOG DATA FORMAT VERSION 2.0
WRAP.                          NO  : One line per depth step
~Well Information
#MNEM.MEAS UNIT            DATA             DESCRIPTION
STRT .M          1000.0000              : First depth
STOP .M          4200.0000              : Last depth
STEP .M             1.0000              : Step
NULL .      -999.25                      : Null value
WELL .      AGB-02                      : Well name
~Curve Information
#MNEM .UNIT                    DESCRIPTION
DEPT      .M                   : DEPT
GR        .API                 : GR
RHOB      .G/C3                : RHOB
NPHI      .V/V                 : NPHI
RT        .OHMM                : RT
VP        .M/S                 : VP
E_STAT    .GPA                 : E_STAT
NU_STAT   .-                   : NU_STAT
UCS       .MPA                 : UCS
IS_CORE   .-                   : IS_CORE
FACIES    .-                   : FACIES
VSH_TRUE  .V/V                 : VSH_TRUE
PHI_TRUE  .V/V                 : PHI_TRUE
PP_MPA    .MPA                 : PP_MPA
SV_MPA    .MPA                 : SV_MPA
SIG_EFF_MPA.MPA                 : SIG_EFF_MPA
E_DYN     .GPA                 : E_DYN
NU_DYN    .-                   : NU_DYN
IS_HC     .-                   : IS_HC
~Parameter Information
# Generated by GeoMech-LogML synthetic generator (Agbada-like physics).
~A
# ...
3523.000000    76.170000      2.283500       0.273400       1.095000       2587.300000    4.870000       0.346700       7.410000       0.000000       2.000000       0.653100       0.228500       47.829000      86.522000      38.693000      8.435700       0.374400       0.000000      
3524.000000    69.780000      2.314000       0.308100       1.110000       2631.600000    6.104900       0.308700       8.310000       0.000000       2.000000       0.558000       0.226500       47.866000      86.546000      38.680000      11.116100      0.322200       0.000000      
3525.000000    71.910000      2.251300       0.274800       0.884000       2665.200000    5.900600       0.292100       6.830000       0.000000       2.000000       0.532700       0.239500       47.903000      86.571000      38.668000      10.648500      0.333600       0.000000      
3526.000000    64.100000      2.330900       0.251300       0.848000       3076.600000    7.537900       0.308200       10.750000      0.000000       2.000000       0.498500       0.209900       47.940000      86.595000      38.655000      14.748700      0.332600       0.000000      
3527.000000    76.180000      2.309700       0.291200       0.901000       2773.600000    5.689500       0.331300       9.280000       0.000000       2.000000       0.597300       0.227400       47.977000      86.620000      38.643000      10.175500      0.367600       0.000000      
3528.000000    64.710000      2.315900       0.282600       0.644000       2951.400000    6.960000       0.306300       9.070000       0.000000       2.000000       0.494500       0.228200       48.015000      86.645000      38.630000      13.196200      0.338300       0.000000      
3529.000000    68.370000      2.321300       0.271600       1.679000       2895.700000    6.621000       0.331500       9.130000       0.000000       2.000000       0.563400       0.212600       48.052000      86.669000      38.617000      12.344300      0.345900       0.000000      
3530.000000    72.180000      2.309900       0.277100       1.070000       2921.200000    6.587400       0.314900       7.950000       0.000000       2.000000       0.551400       0.217900       48.089000      86.694000      38.604000      12.262300      0.350400       0.000000      
3531.000000    68.190000      2.269200       0.277700       0.606000       2913.100000    6.682000       0.293100       8.120000       0.000000       2.000000       0.508800       0.227900       48.127000      86.718000      38.592000      12.496000      0.340300       0.000000      
3532.000000    72.470000      2.301900       0.289500       1.819000       2907.400000    6.294400       0.336800       7.850000       0.000000       2.000000       0.554100       0.225700       48.164000      86.743000      38.579000      11.558800      0.360300       0.000000      
3533.000000    39.520000      2.325700       0.173300       0.899000       4041.200000    10.557400      0.224700       14.470000      1.000000       0.000000       0.114600       0.194800       48.201000      86.767000      38.566000      31.713600      0.248900       0.000000      
3534.000000    21.770000      2.359000       0.163200       1.806000       4257.100000    10.157900      0.181700       19.470000      0.000000       0.000000       0.043000       0.174000       48.239000      86.792000      38.553000      37.865900      0.212200       0.000000      
3535.000000    32.740000      2.340600       0.176100       0.599000       3996.400000    10.550500      0.198000       17.200000      0.000000       0.000000       0.113700       0.187900       48.276000      86.816000      38.540000      32.348200      0.228000       0.000000      
3536.000000    24.130000      2.375600       0.151300       2.079000       4344.600000    9.872800       0.189100       21.330000      1.000000       0.000000       0.020000       0.171500       48.314000      86.841000      38.527000      39.756000      0.211400       0.000000      
3537.000000    30.620000      2.341600       0.201400       0.956000       3926.500000    10.551000      0.184700       18.460000      0.000000       0.000000       0.127100       0.188900       48.351000      86.866000      38.514000      31.432600      0.224000       0.000000      
3538.000000    26.980000      2.374000       0.154200       1.881000       4225.100000    10.240000      0.179800       18.310000      0.000000       0.000000       0.058500       0.176300       48.389000      86.890000      38.501000      37.131300      0.219800       0.000000      
3539.000000    34.970000      2.344500       0.196900       1.378000       4084.600000    10.544700      0.227000       22.500000      0.000000       0.000000       0.136100       0.185600       48.426000      86.915000      38.488000      32.255800      0.255500       0.000000      
3540.000000    29.170000      2.411400       0.157300       1.423000       4344.400000    10.012600      0.192100       21.620000      0.000000       0.000000       0.083700       0.162700       48.464000      86.939000      38.475000      38.815700      0.236900       0.000000      
3541.000000    40.350000      2.370400       0.181800       1.218000       3946.700000    10.529200      0.229900       15.500000      0.000000       0.000000       0.181400       0.183300       48.501000      86.964000      38.462000      30.536000      0.254000       0.000000      
3542.000000    30.040000      2.362200       0.164900       0.940000       4197.700000    10.415100      0.231300       19.440000      0.000000       0.000000       0.111300       0.173400       48.539000      86.988000      38.449000      35.144100      0.242800       0.000000      
3543.000000    36.010000      2.355900       0.190900       1.266000       3847.600000    10.535900      0.197600       16.540000      0.000000       0.000000       0.132600       0.186000       48.577000      87.013000      38.436000      31.206200      0.204600       0.000000      
3544.000000    33.100000      2.353700       0.175700       1.712000       3944.900000    10.516900      0.197400       14.330000      0.000000       0.000000       0.102600       0.182500       48.615000      87.037000      38.423000      33.007300      0.199000       0.000000      
3545.000000    26.280000      2.341300       0.148700       1.322000       4062.500000    10.456500      0.197100       18.320000      0.000000       0.000000       0.077200       0.183100       48.652000      87.062000      38.410000      34.359800      0.209300       0.000000      
3546.000000    37.080000      2.380000       0.190300       0.936000       4090.100000    10.489300      0.224600       17.940000      0.000000       0.000000       0.126300       0.180300       48.690000      87.087000      38.397000      33.626200      0.242600       0.000000      
3547.000000    29.670000      2.349900       0.178600       1.136000       4172.000000    10.384600      0.210700       16.950000      0.000000       0.000000       0.074400       0.182000       48.728000      87.111000      38.383000      35.339700      0.229000       0.000000      
3548.000000    31.300000      2.315000       0.178000       0.841000       4015.200000    10.521800      0.194600       16.900000      0.000000       0.000000       0.110200       0.189400       48.766000      87.136000      38.370000      32.056000      0.232700       0.000000      
3549.000000    30.960000      2.339200       0.181400       1.017000       3873.900000    10.519200      0.190400       18.240000      1.000000       0.000000       0.107900       0.192900       48.804000      87.160000      38.357000      31.349400      0.206100       0.000000      
3550.000000    28.800000      2.353300       0.161500       1.634000       4192.200000    10.400200      0.215400       17.430000      0.000000       0.000000       0.087600       0.182400       48.841000      87.185000      38.343000      34.981600      0.241800       0.000000      
3551.000000    31.430000      2.352500       0.174200       1.686000       4086.900000    10.420300      0.172400       18.710000      0.000000       0.000000       0.101200       0.174400       48.879000      87.209000      38.330000      34.619100      0.216000       0.000000      
