~Version Information
VERS.                          2.0 : CWLS LAS LOG DATA FORMAT VERSION 2.0
WRAP.                          NO  : One line per depth step
~Well Information
#MNEM.MEAS UNIT            DATA             DESCRIPTION
STRT .M          1000.0000              : First depth
STOP .M          4200.0000              : Last depth
STEP .M             1.0000              : Step
NULL .      -999.25                      : Null value
WELL .      AGB-03                      : Well name
~Curve Information
#MNEM .UNIT                    DESCRIPTION
DEPT      .M                   : DEPT
GR        .API                 : GR
RHOB      .G/C3                : RHOB
NPHI      .V/V                 : NPHI
RT        .OHMM                : RT
VP        .M/S                 : VP
E_STAT    .GPA                 : E_STAT
NU_STAT   .-                   : NU_STAT
UCS       .MPA                 : UCS
IS_CORE   .-                   : IS_CORE
FACIES    .-                   : FACIES
VSH_TRUE  .V/V                 : VSH_TRUE
PHI_TRUE  .V/V                 : PHI_TRUE
PP_MPA    .MPA                 : PP_MPA
SV_MPA    .MPA                 : SV_MPA
SIG_EFF_MPA.MPA                 : SIG_EFF_MPA
E_DYN     .GPA                 : E_DYN
NU_DYN    .-                   : NU_DYN
IS_HC     .-                   : IS_HC
~Parameter Information
# Generated by GeoMech-LogML synthetic generator (Agbada-like physics).
~A
# ...
1435.000000    45.740000      2.146600       0.297500       0.566000       2703.300000    7.933700       0.258500       3.720000       1.000000       1.000000       0.229500       0.296900       14.511000      34.876000      20.365000      12.363500      0.276800       0.000000      
1436.000000    47.810000      2.195500       0.319500       0.629000       2703.100000    7.915700       0.254400       4.300000       0.000000       1.000000       0.258600       0.291200       14.521000      34.900000      20.379000      12.327400      0.287300       0.000000      
1437.000000    40.800000      2.176900       0.289400       0.696000       2620.900000    8.172000       0.218400       4.200000       0.000000       1.000000       0.223000       0.289700       14.531000      34.924000      20.393000      12.831800      0.233200       0.000000      
1438.000000    39.990000      2.172700       0.296600       0.786000       2904.400000    9.099300       0.235200       4.390000       1.000000       1.000000       0.197500       0.279500       14.541000      34.948000      20.407000      14.755100      0.267200       0.000000      
1439.000000    41.010000      2.194400       0.318500       0.650000       2729.300000    8.125100       0.245200       3.710000       0.000000       1.000000       0.233800       0.294700       14.551000      34.973000      20.421000      12.737300      0.281600       0.000000      
1440.000000    50.020000      2.207100       0.294500       0.753000       2674.700000    7.404800       0.287800       4.570000       0.000000       1.000000       0.342500       0.276000       14.562000      34.997000      20.436000      11.348200      0.311200       0.000000      
1441.000000    41.760000      2.206500       0.260600       0.438000       2733.400000    8.548500       0.216400       4.700000       0.000000       1.000000       0.227300       0.283700       14.572000      35.021000      20.450000      13.591100      0.255600       0.000000      
1442.000000    41.900000      2.176400       0.276400       0.564000       2847.600000    9.014400       0.229600       6.200000       0.000000       1.000000       0.213100       0.274400       14.582000      35.046000      20.464000      14.569300      0.254900       0.000000      
1443.000000    46.390000      2.194500       0.278200       1.067000       2882.200000    9.013500       0.239100       4.890000       0.000000       1.000000       0.230600       0.271400       14.592000      35.070000      20.478000      14.566900      0.270700       0.000000      
1444.000000    49.440000      2.184400       0.321700       0.902000       2712.900000    7.710600       0.276700       4.810000       0.000000       1.000000       0.290000       0.285500       14.602000      35.094000      20.492000      11.926700      0.300500       0.000000      
1445.000000    41.020000      2.189000       0.287300       1.058000       2663.300000    8.209100       0.214000       4.170000       0.000000       1.000000       0.225200       0.291600       14.612000      35.119000      20.506000      12.902000      0.251500       0.000000      
1446.000000    44.120000      2.183300       0.317000       0.651000       2848.900000    8.389300       0.263000       4.570000       0.000000       1.000000       0.250300       0.282900       14.622000      35.143000      20.521000      13.264600      0.297200       0.000000      
1447.000000    42.760000      2.199400       0.278300       0.489000       3019.300000    9.259100       0.264400       5.480000       0.000000       1.000000       0.233200       0.267900       14.632000      35.167000      20.535000      15.100200      0.295000       0.000000      
1448.000000    36.730000      2.181400       0.276200       0.420000       2940.600000    9.358200       0.252900       4.600000       0.000000       1.000000       0.154200       0.289700       14.642000      35.191000      20.549000      15.319300      0.263100       0.000000      
1449.000000    48.050000      2.152500       0.320500       0.502000       2424.500000    6.464800       0.263600       2.430000       0.000000       1.000000       0.292700       0.313600       14.653000      35.216000      20.563000      9.642000       0.290600       0.000000      
1450.000000    51.000000      2.170300       0.285900       0.630000       2788.100000    7.835700       0.296600       3.450000       0.000000       1.000000       0.270100       0.290300       14.663000      35.240000      20.577000      12.168300      0.310100       0.000000      
1451.000000    37.410000      2.197200       0.297000       0.481000       2986.200000    9.500400       0.240600       4.380000       0.000000       1.000000       0.157700       0.287200       14.673000      35.264000      20.592000      15.638800      0.271200       0.000000      
1452.000000    43.220000      2.140700       0.299500       0.671000       2685.900000    8.037500       0.254900       3.930000       0.000000       1.000000       0.201300       0.303200       14.683000      35.289000      20.606000      12.563200      0.262300       0.000000      
1453.000000    53.290000      2.169700       0.297200       0.832000       2561.100000    7.130500       0.268000       3.360000       0.000000       1.000000       0.324400       0.285200       14.693000      35.313000      20.620000      10.839300      0.290700       0.000000      
1454.000000    46.190000      2.188200       0.281900       0.687000       2797.200000    8.101500       0.284900       3.710000       0.000000       1.000000       0.276100       0.281400       14.703000      35.337000      20.634000      12.690700      0.300800       0.000000      
1455.000000    37.630000      2.183000       0.305500       1.028000       2725.000000    7.887700       0.255600       3.630000       1.000000       1.000000       0.230700       0.303000       14.713000      35.362000      20.648000      12.271700      0.293000       0.000000      
1456.000000    91.380000      2.101400       0.411200       0.844000       1450.000000    1.355000       0.391800       2.110000       0.000000       3.000000       0.827400       0.347500       14.723000      35.386000      20.663000      1.800200       0.416000       0.000000      
1457.000000    93.470000      2.040600       0.462600       1.340000       1450.000000    1.316700       0.384900       2.010000       0.000000       3.000000       0.877600       0.373000       14.733000      35.410000      20.677000      1.748100       0.416000       0.000000      
1458.000000    97.860000      2.101900       0.419600       1.582000       1450.000000    1.355100       0.381400       2.050000       0.000000       3.000000       0.879700       0.353100       14.744000      35.435000      20.691000      1.800600       0.416000       0.000000      
1459.000000    96.900000      2.132000       0.414500       1.221000       1450.000000    1.374000       0.371900       2.540000       0.000000       3.000000       0.847800       0.337300       14.754000      35.459000      20.705000      1.826400       0.416000       0.000000      
1460.000000    95.670000      2.102800       0.429400       1.019000       1450.000000    1.355600       0.380500       1.880000       0.000000       3.000000       0.879700       0.349100       14.764000      35.483000      20.719000      1.801400       0.416000       0.000000      
1461.000000    92.450000      2.096900       0.427600       1.010000       1450.000000    1.351800       0.404800       2.050000       0.000000       3.000000       0.861700       0.349400       14.774000      35.507000      20.734000      1.796400       0.416000       0.000000      
1462.000000    86.230000      2.076800       0.433400       1.119000       1450.000000    1.339100       0.394900       1.910000       0.000000       3.000000       0.848100       0.358000       14.784000      35.532000      20.748000      1.779100       0.416000       0.000000      
1463.000000    95.790000      2.074100       0.455300       1.151000       1450.000000    1.337300       0.384400       2.200000       0.000000       3.000000       0.876800       0.360900       14.794000      35.556000      20.762000      1.776800       0.416000       0.000000      
