~Version Information
VERS.                          2.0 : CWLS LAS LOG DATA FORMAT VERSION 2.0
WRAP.                          NO  : One line per depth step
~Well Information
#MNEM.MEAS UNIT            DATA             DESCRIPTION
STRT .M          1000.0000              : First depth
STOP .M          4200.0000              : Last depth
STEP .M             1.0000              : Step
NULL .      -999.25                      : Null value
WELL .      AGB-02                      : Well name
~Curve Information
#MNEM .UNIT                    DESCRIPTION
DEPT      .M                   : DEPT
GR        .API                 : GR
RHOB      .G/C3                : RHOB
NPHI      .V/V                 : NPHI
RT        .OHMM                : RT
VP        .M/S                 : VP
E_STAT    .GPA                 : E_STAT
NU_STAT   .-                   : NU_STAT
UCS       .MPA                 : UCS
IS_CORE   .-                   : IS_CORE
FACIES    .-                   : FACIES
VSH_TRUE  .V/V                 : VSH_TRUE
PHI_TRUE  .V/V                 : PHI_TRUE
PP_MPA    .MPA                 : PP_MPA
SV_MPA    .MPA                 : SV_MPA
SIG_EFF_MPA.MPA                 : SIG_EFF_MPA
E_DYN     .GPA                 : E_DYN
NU_DYN    .-                   : NU_DYN
IS_HC     .-                   : IS_HC
~Parameter Information
# Generated by GeoMech-LogML synthetic generator (Agbada-like physics).
~A
# ...
1435.000000    42.970000      2.221600       0.266200       0.389000       3025.800000    8.186100       0.247200       5.420000       0.000000       1.000000       0.207000       0.258500       14.231000      35.242000      21.012000      16.595900      0.260800       0.000000      
1436.000000    48.220000      2.190400       0.288800       0.311000       2692.200000    6.765700       0.260800       4.250000       0.000000       1.000000       0.259500       0.285500       14.241000      35.267000      21.026000      12.653900      0.271800       0.000000      
1437.000000    98.710000      2.082500       0.430200       1.054000       1450.000000    1.157500       0.380700       1.860000       0.000000       3.000000       0.876900       0.366100       14.250000      35.291000      21.041000      1.784000       0.416000       0.000000      
1438.000000    97.660000      2.073800       0.418000       0.865000       1450.000000    1.152800       0.376200       2.190000       0.000000       3.000000       0.863500       0.352700       14.260000      35.316000      21.056000      1.776500       0.416000       0.000000      
1439.000000    90.950000      2.086200       0.422600       1.054000       1450.000000    1.159600       0.383000       3.040000       0.000000       3.000000       0.837700       0.347400       14.270000      35.341000      21.070000      1.787200       0.416000       0.000000      
1440.000000    91.740000      2.052700       0.460600       1.183000       1450.000000    1.141500       0.379000       2.360000       0.000000       3.000000       0.859500       0.378100       14.280000      35.365000      21.085000      1.758500       0.416000       0.000000      
1441.000000    98.380000      2.069200       0.439700       1.103000       1450.000000    1.150500       0.370800       1.950000       0.000000       3.000000       0.961200       0.370800       14.290000      35.390000      21.100000      1.772600       0.416000       0.000000      
1442.000000    86.630000      2.025700       0.457100       0.501000       1450.000000    1.127000       0.378000       1.820000       0.000000       3.000000       0.841300       0.390300       14.300000      35.414000      21.114000      1.735300       0.416000       0.000000      
1443.000000    90.170000      2.138900       0.390700       0.527000       1450.000000    1.188100       0.386000       2.730000       0.000000       3.000000       0.788000       0.332600       14.310000      35.439000      21.129000      1.832300       0.416000       0.000000      
1444.000000    98.100000      2.034600       0.453200       0.727000       1450.000000    1.131800       0.402400       2.240000       0.000000       3.000000       0.881900       0.373500       14.320000      35.463000      21.143000      1.743000       0.416000       0.000000      
1445.000000    100.140000     2.105200       0.423000       1.479000       1450.000000    1.170000       0.400100       2.650000       0.000000       3.000000       0.921300       0.355600       14.330000      35.488000      21.158000      1.803500       0.416000       0.000000      
1446.000000    93.010000      2.073900       0.448000       0.672000       1450.000000    1.153100       0.390400       2.320000       0.000000       3.000000       0.876700       0.369900       14.340000      35.512000      21.173000      1.776700       0.416000       0.000000      
1447.000000    99.360000      2.054200       0.439800       1.276000       1450.000000    1.142400       0.370700       2.120000       0.000000       3.000000       0.893300       0.378900       14.350000      35.537000      21.187000      1.759700       0.416000       0.000000      
1448.000000    93.700000      2.035000       0.456700       1.237000       1450.000000    1.132100       0.367700       2.090000       0.000000       3.000000       0.867900       0.384600       14.360000      35.562000      21.202000      1.743300       0.416000       0.000000      
1449.000000    96.810000      2.084900       0.435300       0.827000       1450.000000    1.159000       0.389700       2.110000       0.000000       3.000000       0.889700       0.366600       14.369000      35.586000      21.217000      1.786000       0.416000       0.000000      
1450.000000    90.900000      2.058300       0.432700       0.834000       1450.000000    1.144600       0.356400       2.330000       0.000000       3.000000       0.814700       0.371600       14.379000      35.611000      21.231000      1.763300       0.416000       0.000000      
1451.000000    97.450000      2.029000       0.448100       1.080000       1450.000000    1.128700       0.386800       1.530000       0.000000       3.000000       0.875300       0.388400       14.389000      35.635000      21.246000      1.738200       0.416000       0.000000      
1452.000000    93.870000      2.028800       0.461700       0.664000       1450.000000    1.128500       0.364400       2.070000       0.000000       3.000000       0.882000       0.386300       14.399000      35.660000      21.261000      1.738000       0.416000       0.000000      
1453.000000    95.030000      2.107600       0.441200       1.178000       1450.000000    1.171000       0.401500       2.420000       0.000000       3.000000       0.848200       0.345300       14.409000      35.684000      21.275000      1.805500       0.416000       0.000000      
1454.000000    96.850000      2.093800       0.419900       1.040000       1450.000000    1.163500       0.385400       2.700000       0.000000       3.000000       0.863200       0.350000       14.419000      35.709000      21.290000      1.793700       0.416000       0.000000      
1455.000000    94.030000      2.136400       0.418900       0.706000       1450.000000    1.186400       0.383200       3.030000       0.000000       3.000000       0.842500       0.327300       14.429000      35.734000      21.305000      1.830200       0.416000       0.000000      
1456.000000    88.520000      2.065000       0.436800       0.798000       1450.000000    1.147700       0.377400       2.330000       0.000000       3.000000       0.826800       0.361800       14.439000      35.758000      21.319000      1.769000       0.416000       0.000000      
1457.000000    96.880000      2.155100       0.391200       1.207000       1450.000000    1.196200       0.386900       2.750000       0.000000       3.000000       0.850800       0.326200       14.449000      35.783000      21.334000      1.846200       0.416000       0.000000      
1458.000000    97.610000      2.129600       0.431000       1.086000       1450.000000    1.182300       0.390900       3.020000       0.000000       3.000000       0.910800       0.344900       14.459000      35.807000      21.348000      1.824400       0.416000       0.000000      
1459.000000    95.690000      2.109300       0.428400       0.598000       1450.000000    1.171200       0.383700       2.810000       0.000000       3.000000       0.864800       0.335300       14.469000      35.832000      21.363000      1.807000       0.416000       0.000000      
1460.000000    96.960000      2.089700       0.438500       1.881000       1450.000000    1.160500       0.375300       2.370000       0.000000       3.000000       0.868100       0.364000       14.479000      35.856000      21.378000      1.790100       0.416000       0.000000      
1461.000000    86.650000      2.101200       0.383400       0.352000       1450.000000    1.166500       0.390600       2.170000       0.000000       3.000000       0.769500       0.349500       14.488000      35.881000      21.392000      1.800000       0.416000       0.000000      
1462.000000    90.770000      2.086800       0.406900       0.656000       1450.000000    1.158600       0.385700       2.390000       0.000000       3.000000       0.855200       0.357600       14.498000      35.905000      21.407000      1.787700       0.416000       0.000000      
1463.000000    95.980000      2.112200       0.428500       0.711000       1450.000000    1.172100       0.389300       2.100000       0.000000       3.000000       0.881100       0.355000       14.508000      35.930000      21.422000      1.809400       0.416000       0.000000      
