~Version Information
VERS.                          2.0 : CWLS LAS LOG DATA FORMAT VERSION 2.0
WRAP.                          NO  : One line per depth step
~Well Information
#MNEM.MEAS UNIT            DATA             DESCRIPTION
STRT .M          1000.0000              : First depth
STOP .M          4200.0000              : Last depth
STEP .M             1.0000              : Step
NULL .      -999.25                      : Null value
WELL .      AGB-03                      : Well name
~Curve Information
#MNEM .UNIT                    DESCRIPTION
DEPT      .M                   : DEPT
GR        .API                 : GR
RHOB      .G/C3                : RHOB
NPHI      .V/V                 : NPHI
RT        .OHMM                : RT
VP        .M/S                 : VP
E_STAT    .GPA                 : E_STAT
NU_STAT   .-                   : NU_STAT
UCS       .MPA                 : UCS
IS_CORE   .-                   : IS_CORE
FACIES    .-                   : FACIES
VSH_TRUE  .V/V                 : VSH_TRUE
PHI_TRUE  .V/V                 : PHI_TRUE
PP_MPA    .MPA                 : PP_MPA
SV_MPA    .MPA                 : SV_MPA
SIG_EFF_MPA.MPA                 : SIG_EFF_MPA
E_DYN     .GPA                 : E_DYN
NU_DYN    .-                   : NU_DYN
IS_HC     .-                   : IS_HC
~Parameter Information
# Generated by GeoMech-LogML synthetic generator (Agbada-like physics).
~A
1000.000000    29.740000      2.165200       0.281300       1.011000       2893.600000    9.590800       0.191600       3.600000       0.000000       0.000000       0.070400       0.291200       10.112000      24.303000      14.191000      15.815000      0.222700       0.000000      
1001.000000    20.020000      2.197200       0.258500       0.986000       3049.400000    10.498300      0.179600       3.720000       0.000000       0.000000       0.022800       0.285100       10.122000      24.328000      14.206000      17.988200      0.216400       0.000000      
1002.000000    31.330000      2.109000       0.318500       0.541000       2739.300000    8.521900       0.200500       2.800000       0.000000       0.000000       0.066100       0.320300       10.132000      24.352000      14.220000      13.514000      0.236200       0.000000      
1003.000000    30.890000      2.195100       0.280600       0.676000       2984.700000    10.293700      0.191000       3.880000       0.000000       0.000000       0.038300       0.283200       10.143000      24.376000      14.234000      17.478000      0.205400       0.000000      
1004.000000    38.480000      2.163700       0.296000       0.518000       3003.500000    9.048100       0.290400       3.420000       0.000000       0.000000       0.121100       0.298300       10.153000      24.401000      14.248000      14.618200      0.297100       0.000000      
1005.000000    28.600000      2.136500       0.286900       0.599000       2874.300000    9.245600       0.198100       2.880000       0.000000       0.000000       0.049500       0.309000       10.163000      24.425000      14.262000      15.047200      0.237200       0.000000      
1006.000000    30.850000      2.179300       0.285000       0.843000       2876.300000    9.697100       0.190800       3.650000       0.000000       0.000000       0.056900       0.292500       10.173000      24.449000      14.276000      16.061300      0.207900       0.000000      
1007.000000    28.740000      2.102500       0.328100       0.376000       2709.600000    8.308800       0.225100       2.090000       0.000000       0.000000       0.049700       0.332800       10.183000      24.474000      14.291000      13.084900      0.240500       0.000000      
1008.000000    28.050000      2.117700       0.300300       0.528000       2816.500000    8.301000       0.244800       2.500000       0.000000       0.000000       0.102400       0.320000       10.193000      24.498000      14.305000      13.070100      0.282300       0.000000      
1009.000000    39.200000      2.121600       0.332900       0.493000       2671.100000    7.544300       0.270900       2.280000       0.000000       0.000000       0.140000       0.327500       10.203000      24.522000      14.319000      11.597000      0.288500       0.000000      
1010.000000    36.220000      2.162200       0.325800       0.596000       2707.300000    8.332700       0.229800       2.420000       0.000000       0.000000       0.089400       0.323800       10.213000      24.547000      14.333000      13.136100      0.252800       0.000000      
1011.000000    23.840000      2.158400       0.303900       0.895000       2801.100000    9.148000       0.198000       3.170000       0.000000       0.000000       0.065400       0.305000       10.223000      24.571000      14.347000      14.841400      0.219700       0.000000      
1012.000000    33.880000      2.120000       0.295600       0.832000       2687.000000    8.273700       0.190700       3.020000       0.000000       0.000000       0.091600       0.319000       10.234000      24.595000      14.362000      13.020000      0.238500       0.000000      
1013.000000    27.650000      2.149400       0.302900       0.836000       3060.200000    9.959900       0.225400       3.160000       0.000000       0.000000       0.032600       0.299000       10.244000      24.619000      14.376000      16.685600      0.252800       0.000000      
1014.000000    29.800000      2.134000       0.276100       0.338000       2943.500000    9.663700       0.214100       3.460000       0.000000       0.000000       0.020000       0.307000       10.254000      24.644000      14.390000      15.996900      0.228100       0.000000      
1015.000000    35.600000      2.116800       0.334800       0.480000       2530.600000    6.781100       0.283500       2.270000       0.000000       0.000000       0.159300       0.341600       10.264000      24.668000      14.404000      10.198500      0.295400       0.000000      
1016.000000    31.250000      2.138800       0.334000       0.389000       2731.300000    8.204300       0.247100       2.830000       0.000000       0.000000       0.116400       0.317000       10.274000      24.692000      14.418000      12.887300      0.265700       0.000000      
1017.000000    38.880000      2.097700       0.351600       0.451000       2255.400000    5.867600       0.240700       2.070000       0.000000       0.000000       0.199300       0.347200       10.284000      24.717000      14.433000      8.610200       0.266200       0.000000      
1018.000000    27.340000      2.107100       0.310600       0.459000       2668.000000    7.943800       0.226900       1.850000       1.000000       0.000000       0.071300       0.337400       10.294000      24.741000      14.447000      12.376300      0.255200       0.000000      
1019.000000    27.940000      2.104000       0.304700       0.636000       2710.100000    8.352300       0.211400       2.450000       0.000000       0.000000       0.049100       0.331600       10.304000      24.765000      14.461000      13.190100      0.236400       0.000000      
1020.000000    25.930000      2.168300       0.300300       0.869000       3004.200000    9.953500       0.218200       3.530000       0.000000       0.000000       0.041300       0.295200       10.314000      24.790000      14.475000      16.688300      0.237000       0.000000      
1021.000000    32.890000      2.119500       0.329200       0.727000       2478.600000    7.090000       0.228900       2.540000       0.000000       0.000000       0.139500       0.335800       10.325000      24.814000      14.489000      10.766200      0.254100       0.000000      
1022.000000    30.570000      2.156700       0.302300       0.355000       2811.500000    8.920700       0.198200       3.820000       0.000000       0.000000       0.101100       0.301400       10.335000      24.838000      14.504000      14.374600      0.243500       0.000000      
1023.000000    36.310000      2.139600       0.313300       0.397000       2703.300000    7.680700       0.270400       2.480000       0.000000       0.000000       0.150200       0.322000       10.345000      24.862000      14.518000      11.876000      0.291800       0.000000      
1024.000000    32.640000      2.121900       0.286700       0.503000       2750.700000    8.819000       0.207400       2.810000       0.000000       0.000000       0.072300       0.307900       10.355000      24.887000      14.532000      14.163900      0.215000       0.000000      
1025.000000    29.270000      2.123700       0.333700       0.677000       2623.400000    7.840000       0.214400       2.520000       0.000000       0.000000       0.116500       0.323600       10.365000      24.911000      14.546000      12.186500      0.249700       0.000000      
1026.000000    29.050000      2.155800       0.293400       0.630000       2942.300000    9.120800       0.261700       3.160000       0.000000       0.000000       0.091300       0.304100       10.375000      24.935000      14.560000      14.814700      0.273600       0.000000      
1027.000000    33.970000      2.165400       0.298700       0.701000       2767.300000    8.635700       0.215500       3.700000       0.000000       0.000000       0.108400       0.308500       10.385000      24.960000      14.575000      13.786700      0.251200       0.000000      
1028.000000    25.310000      2.157600       0.306500       0.884000       2854.200000    9.333300       0.204500       3.900000       0.000000       0.000000       0.059100       0.303200       10.395000      24.984000      14.589000      15.286600      0.224700       0.000000      
