~Version Information
VERS.                          2.0 : CWLS LAS LOG DATA FORMAT VERSION 2.0
WRAP.                          NO  : One line per depth step
~Well Information
#MNEM.MEAS UNIT            DATA             DESCRIPTION
STRT .M          1000.0000              : First depth
STOP .M          4200.0000              : Last depth
STEP .M             1.0000              : Step
NULL .      -999.25                      : Null value
WELL .      AGB-02                      : Well name
~Curve Information
#MNEM .UNIT                    DESCRIPTION
DEPT      .M                   : DEPT
GR        .API                 : GR
RHOB      .G/C3                : RHOB
NPHI      .V/V                 : NPHI
RT        .OHMM                : RT
VP        .M/S                 : VP
E_STAT    .GPA                 : E_STAT
NU_STAT   .-                   : NU_STAT
UCS       .MPA                 : UCS
IS_CORE   .-                   : IS_CORE
FACIES    .-                   : FACIES
VSH_TRUE  .V/V                 : VSH_TRUE
PHI_TRUE  .V/V                 : PHI_TRUE
PP_MPA    .MPA                 : PP_MPA
SV_MPA    .MPA                 : SV_MPA
SIG_EFF_MPA.MPA                 : SIG_EFF_MPA
E_DYN     .GPA                 : E_DYN
NU_DYN    .-                   : NU_DYN
IS_HC     .-                   : IS_HC
~Parameter Information
# Generated by GeoMech-LogML synthetic generator (Agbada-like physics).
~A
# ...
2276.000000    94.560000      2.149500       0.380000       1.566000       1510.500000    1.191300       0.411500       4.480000       0.000000       3.000000       0.891200       0.301500       22.571000      55.897000      33.326000      1.851300       0.423600       0.000000      
2277.000000    97.060000      2.164600       0.380600       1.566000       1557.100000    1.203600       0.387300       3.990000       0.000000       3.000000       0.854800       0.303100       22.581000      55.921000      33.341000      1.871000       0.428700       0.000000      
2278.000000    91.920000      2.179300       0.345400       1.357000       1738.400000    1.224400       0.398100       4.340000       0.000000       3.000000       0.879300       0.282300       22.590000      55.946000      33.355000      1.904400       0.444400       0.000000      
2279.000000    93.720000      2.192800       0.368700       0.998000       1450.000000    1.208300       0.387100       3.910000       0.000000       3.000000       0.894700       0.292600       22.600000      55.970000      33.370000      1.878500       0.416000       0.000000      
2280.000000    90.460000      2.196200       0.377200       0.674000       1659.100000    1.228600       0.414900       4.860000       0.000000       3.000000       0.844400       0.293100       22.610000      55.995000      33.384000      1.911000       0.438300       0.000000      
2281.000000    98.100000      2.191400       0.380600       1.030000       1627.500000    1.223800       0.407300       4.490000       0.000000       3.000000       0.804500       0.299000       22.620000      56.019000      33.399000      1.903200       0.435500       0.000000      
2282.000000    101.100000     2.214700       0.371200       1.115000       1619.900000    1.235900       0.418600       4.010000       0.000000       3.000000       0.872700       0.295300       22.630000      56.044000      33.414000      1.922500       0.434800       0.000000      
2283.000000    50.390000      2.253600       0.159200       7.693000       3063.500000    8.522200       0.213900       10.050000      0.000000       1.000000       0.295900       0.210200       22.640000      56.068000      33.428000      17.961500      0.239400       1.000000      
2284.000000    41.220000      2.241900       0.170700       14.219000      2889.900000    8.287000       0.167200       9.850000       0.000000       1.000000       0.245700       0.228600       22.650000      56.093000      33.443000      17.160300      0.184500       1.000000      
2285.000000    50.030000      2.250700       0.152600       15.749000      3004.900000    8.452900       0.186800       9.520000       0.000000       1.000000       0.267900       0.220900       22.660000      56.118000      33.458000      17.717400      0.223200       1.000000      
2286.000000    49.860000      2.255100       0.140200       18.618000      2941.200000    8.429600       0.184300       9.840000       0.000000       1.000000       0.276600       0.214500       22.670000      56.142000      33.472000      17.635800      0.196400       1.000000      
2287.000000    42.600000      2.249900       0.133600       14.502000      3140.100000    9.131400       0.171800       11.540000      0.000000       1.000000       0.210100       0.209200       22.680000      56.167000      33.487000      20.281500      0.186800       1.000000      
2288.000000    45.300000      2.229100       0.145100       17.082000      3023.300000    8.704300       0.161700       11.950000      0.000000       1.000000       0.238100       0.214800       22.690000      56.191000      33.502000      18.602900      0.187900       1.000000      
2289.000000    42.000000      2.209200       0.175400       15.128000      2851.900000    8.054500       0.163800       8.610000       1.000000       1.000000       0.262800       0.228700       22.700000      56.216000      33.516000      16.402900      0.188100       1.000000      
2290.000000    47.620000      2.239700       0.151600       10.718000      2908.700000    8.603100       0.112800       12.170000      0.000000       1.000000       0.242100       0.207900       22.709000      56.240000      33.531000      18.230700      0.128500       1.000000      
2291.000000    49.530000      2.225900       0.170200       17.595000      2929.500000    8.216900       0.190000       9.920000       0.000000       1.000000       0.272300       0.224500       22.719000      56.265000      33.546000      16.914400      0.212400       1.000000      
2292.000000    49.210000      2.231500       0.172000       6.733000       2924.200000    8.036600       0.218600       9.720000       0.000000       1.000000       0.290800       0.227900       22.729000      56.289000      33.560000      16.338000      0.234600       1.000000      
2293.000000    42.500000      2.239300       0.156400       8.007000       3083.000000    8.596900       0.211400       9.640000       1.000000       1.000000       0.246900       0.224800       22.739000      56.314000      33.575000      18.197800      0.235500       1.000000      
2294.000000    50.680000      2.229800       0.164100       7.859000       3033.700000    8.192000       0.225300       8.660000       0.000000       1.000000       0.294100       0.224600       22.749000      56.339000      33.589000      16.824800      0.258400       1.000000      
2295.000000    35.580000      2.218700       0.151000       12.917000      3362.700000    9.591400       0.198300       11.050000      0.000000       1.000000       0.136700       0.216900       22.759000      56.363000      33.604000      22.372600      0.207200       1.000000      
2296.000000    49.990000      2.275100       0.137900       7.164000       3073.700000    8.883500       0.177000       12.300000      0.000000       1.000000       0.268900       0.203200       22.769000      56.388000      33.619000      19.243000      0.204100       1.000000      
2297.000000    48.070000      2.216000       0.180200       13.913000      2918.300000    7.790300       0.230500       8.070000       0.000000       1.000000       0.300900       0.234800       22.779000      56.412000      33.633000      15.572300      0.255200       1.000000      
2298.000000    91.040000      2.207300       0.348800       0.751000       1794.000000    1.489000       0.391100       4.570000       0.000000       3.000000       0.802400       0.282000       22.789000      56.437000      33.648000      2.328800       0.435600       0.000000      
2299.000000    90.300000      2.219300       0.350000       1.272000       1767.700000    1.350700       0.393200       5.500000       0.000000       3.000000       0.833400       0.276800       22.799000      56.461000      33.663000      2.104400       0.441200       0.000000      
2300.000000    98.340000      2.193400       0.380400       1.040000       1810.700000    1.238100       0.411500       5.110000       0.000000       3.000000       0.846300       0.281800       22.809000      56.486000      33.677000      1.923100       0.449200       0.000000      
2301.000000    97.200000      2.232100       0.366800       1.532000       1651.700000    1.249700       0.408100       5.200000       0.000000       3.000000       0.899000       0.284100       22.819000      56.511000      33.692000      1.941400       0.437600       0.000000      
2302.000000    95.800000      2.159200       0.419800       1.865000       1490.000000    1.196800       0.385500       2.780000       0.000000       3.000000       0.899100       0.317900       22.828000      56.535000      33.707000      1.856400       0.421100       0.000000      
2303.000000    101.850000     2.228700       0.391000       2.551000       1549.200000    1.240000       0.392300       4.570000       0.000000       3.000000       0.916400       0.284900       22.838000      56.560000      33.721000      1.925400       0.427900       0.000000      
2304.000000    94.460000      2.195600       0.375500       1.261000       1649.100000    1.230200       0.412700       4.040000       0.000000       3.000000       0.859400       0.278200       22.848000      56.584000      33.736000      1.909400       0.437400       0.000000      
