~Version Information
VERS.                          2.0 : CWLS LAS LOG DATA FORMAT VERSION 2.0
WRAP.                          NO  : One line per depth step
~Well Information
#MNEM.MEAS UNIT            DATA             DESCRIPTION
STRT .M          1000.0000              : First depth
STOP .M          4200.0000              : Last depth
STEP .M             1.0000              : Step
NULL .      -999.25                      : Null value
WELL .      AGB-03                      : Well name
~Curve Information
#MNEM .UNIT                    DESCRIPTION
DEPT      .M                   : DEPT
GR        .API                 : GR
RHOB      .G/C3                : RHOB
NPHI      .V/V                 : NPHI
RT        .OHMM                : RT
VP        .M/S                 : VP
E_STAT    .GPA                 : E_STAT
NU_STAT   .-                   : NU_STAT
UCS       .MPA                 : UCS
IS_CORE   .-                   : IS_CORE
FACIES    .-                   : FACIES
VSH_TRUE  .V/V                 : VSH_TRUE
PHI_TRUE  .V/V                 : PHI_TRUE
PP_MPA    .MPA                 : PP_MPA
SV_MPA    .MPA                 : SV_MPA
SIG_EFF_MPA.MPA                 : SIG_EFF_MPA
E_DYN     .GPA                 : E_DYN
NU_DYN    .-                   : NU_DYN
IS_HC     .-                   : IS_HC
~Parameter Information
# Generated by GeoMech-LogML synthetic generator (Agbada-like physics).
~A
# ...
3523.000000    91.560000      2.251000       0.379600       2.803000       1708.300000    1.466700       0.404600       4.940000       0.000000       3.000000       0.932900       0.260000       45.674000      85.621000      39.947000      1.964100       0.442200       0.000000      
3524.000000    87.060000      2.244300       0.332100       2.572000       2111.100000    2.668000       0.395100       5.620000       0.000000       3.000000       0.783900       0.261100       45.714000      85.646000      39.931000      3.660100       0.426400       0.000000      
3525.000000    99.570000      2.271700       0.342300       1.736000       1862.900000    2.063400       0.394300       6.170000       0.000000       3.000000       0.872500       0.247400       45.755000      85.670000      39.915000      2.795800       0.429200       0.000000      
3526.000000    95.170000      2.211400       0.393100       1.516000       1856.900000    1.599900       0.420000       4.480000       0.000000       3.000000       0.828100       0.280100       45.795000      85.694000      39.899000      2.147900       0.446000       0.000000      
3527.000000    94.370000      2.266400       0.390000       2.672000       1703.100000    1.476100       0.404800       4.620000       0.000000       3.000000       0.896700       0.264900       45.836000      85.718000      39.882000      1.976900       0.441800       0.000000      
3528.000000    103.060000     2.260600       0.344300       2.456000       1928.500000    1.639500       0.414900       5.610000       0.000000       3.000000       0.888300       0.256900       45.877000      85.743000      39.866000      2.202500       0.450000       0.000000      
3529.000000    88.420000      2.233100       0.323400       2.166000       1738.200000    1.752700       0.397400       4.780000       0.000000       3.000000       0.860400       0.261900       45.917000      85.767000      39.850000      2.359800       0.430400       0.000000      
3530.000000    90.100000      2.246700       0.337800       1.850000       1855.200000    1.883200       0.393600       4.820000       0.000000       3.000000       0.850200       0.261700       45.958000      85.791000      39.833000      2.542000       0.435300       0.000000      
3531.000000    98.800000      2.273200       0.346300       2.092000       2011.700000    2.510100       0.395900       5.060000       0.000000       3.000000       0.811100       0.256400       45.999000      85.816000      39.817000      3.431100       0.424700       0.000000      
3532.000000    93.040000      2.248500       0.338300       1.661000       2023.300000    2.017600       0.398100       4.970000       0.000000       3.000000       0.851300       0.257000       46.040000      85.840000      39.800000      2.730200       0.442700       0.000000      
3533.000000    98.580000      2.224600       0.372600       2.041000       1659.900000    1.446800       0.400000       5.030000       0.000000       3.000000       0.881500       0.282400       46.080000      85.864000      39.784000      1.935800       0.438300       0.000000      
3534.000000    104.540000     2.207600       0.376600       2.201000       1481.200000    1.418400       0.392600       4.190000       0.000000       3.000000       0.918900       0.298700       46.121000      85.889000      39.767000      1.896600       0.420000       0.000000      
3535.000000    93.440000      2.252600       0.326900       1.327000       1907.900000    1.500700       0.414500       4.910000       0.000000       3.000000       0.887800       0.262300       46.162000      85.913000      39.751000      2.009700       0.450000       0.000000      
3536.000000    102.380000     2.235900       0.361400       3.264000       1883.800000    1.469100       0.398100       4.020000       0.000000       3.000000       0.899500       0.259100       46.203000      85.937000      39.734000      1.966000       0.450000       0.000000      
3537.000000    95.970000      2.219700       0.356000       2.424000       1972.300000    1.915500       0.417300       4.500000       0.000000       3.000000       0.831500       0.267300       46.244000      85.961000      39.717000      2.585700       0.442100       0.000000      
3538.000000    96.380000      2.241100       0.358500       2.320000       1929.600000    1.475000       0.420000       5.440000       0.000000       3.000000       0.914500       0.254000       46.285000      85.986000      39.700000      1.973800       0.450000       0.000000      
3539.000000    89.610000      2.219600       0.356900       1.194000       2130.100000    2.950100       0.370600       4.690000       0.000000       3.000000       0.777700       0.253600       46.326000      86.010000      39.684000      4.067000       0.416900       0.000000      
3540.000000    89.890000      2.200700       0.364100       3.146000       1757.700000    1.439700       0.410100       4.260000       0.000000       3.000000       0.891400       0.283000       46.368000      86.034000      39.667000      1.924900       0.445700       0.000000      
3541.000000    87.280000      2.201600       0.353600       1.100000       1796.000000    1.489100       0.420000       4.700000       0.000000       3.000000       0.841100       0.279100       46.409000      86.059000      39.650000      1.992600       0.446300       0.000000      
3542.000000    88.820000      2.266000       0.327800       2.071000       2122.400000    3.284500       0.370000       5.680000       0.000000       3.000000       0.789200       0.240600       46.450000      86.083000      39.633000      4.559000       0.405600       0.000000      
3543.000000    95.310000      2.256400       0.332700       2.809000       1985.700000    2.216000       0.413600       5.400000       0.000000       3.000000       0.841600       0.253900       46.491000      86.107000      39.616000      3.007600       0.433100       0.000000      
3544.000000    89.780000      2.211700       0.361900       1.878000       1700.700000    1.444500       0.401000       4.600000       0.000000       3.000000       0.834400       0.283500       46.533000      86.132000      39.599000      1.930600       0.441500       0.000000      
3545.000000    94.880000      2.254900       0.353900       2.325000       1731.200000    1.473100       0.403900       4.890000       0.000000       3.000000       0.876500       0.271500       46.574000      86.156000      39.582000      1.969700       0.443900       0.000000      
3546.000000    87.750000      2.255300       0.349400       1.368000       2199.900000    2.830300       0.391000       5.880000       0.000000       3.000000       0.799100       0.250900       46.615000      86.180000      39.565000      3.888800       0.428800       0.000000      
3547.000000    95.110000      2.219000       0.345300       3.620000       1685.300000    1.447200       0.403700       4.450000       0.000000       3.000000       0.867500       0.274800       46.657000      86.205000      39.548000      1.933700       0.440400       0.000000      
3548.000000    102.300000     2.193400       0.389500       5.654000       1453.700000    1.408000       0.384200       4.140000       0.000000       3.000000       0.957500       0.282900       46.698000      86.229000      39.530000      1.879700       0.416500       0.000000      
3549.000000    92.990000      2.262900       0.337300       1.149000       1967.000000    1.884400       0.412500       5.150000       0.000000       3.000000       0.873200       0.253700       46.740000      86.253000      39.513000      2.538800       0.444200       0.000000      
3550.000000    96.320000      2.259800       0.362900       1.679000       1953.200000    1.915900       0.407300       4.620000       0.000000       3.000000       0.831300       0.268500       46.782000      86.277000      39.496000      2.582500       0.442100       0.000000      
3551.000000    75.320000      2.341100       0.274500       1.699000       2770.200000    8.053800       0.264300       11.600000      0.000000       2.000000       0.570400       0.205100       46.823000      86.302000      39.478000      12.660000      0.317500       0.000000      
