~Version Information
VERS.                          2.0 : CWLS LAS LOG DATA FORMAT VERSION 2.0
WRAP.                          NO  : One line per depth step
~Well Information
#MNEM.MEAS UNIT            DATA             DESCRIPTION
STRT .M          1000.0000              : First depth
STOP .M          4200.0000              : Last depth
STEP .M             1.0000              : Step
NULL .      -999.25                      : Null value
WELL .      AGB-01                      : Well name
~Curve Information
#MNEM .UNIT                    DESCRIPTION
DEPT      .M                   : DEPT
GR        .API                 : GR
RHOB      .G/C3                : RHOB
NPHI      .V/V                 : NPHI
RT        .OHMM                : RT
VP        .M/S                 : VP
E_STAT    .GPA                 : E_STAT
NU_STAT   .-                   : NU_STAT
UCS       .MPA                 : UCS
IS_CORE   .-                   : IS_CORE
FACIES    .-                   : FACIES
VSH_TRUE  .V/V                 : VSH_TRUE
PHI_TRUE  .V/V                 : PHI_TRUE
PP_MPA    .MPA                 : PP_MPA
SV_MPA    .MPA                 : SV_MPA
SIG_EFF_MPA.MPA                 : SIG_EFF_MPA
E_DYN     .GPA                 : E_DYN
NU_DYN    .-                   : NU_DYN
IS_HC     .-                   : IS_HC
~Parameter Information
# Generated by GeoMech-LogML synthetic generator (Agbada-like physics).
~A
1000.000000    70.220000      2.046000       0.421700       0.437000       1515.800000    1.368000       0.396900       1.720000       0.000000       2.000000       0.540100       0.374500       10.339000      22.727000      12.389000      1.908000       0.416400       0.000000      
1001.000000    70.530000      2.097700       0.380500       0.613000       1869.700000    2.479900       0.354100       2.140000       0.000000       2.000000       0.520100       0.334300       10.349000      22.750000      12.401000      3.543700       0.395300       0.000000      
1002.000000    68.690000      2.081800       0.389300       0.499000       1660.600000    1.786600       0.359200       2.020000       0.000000       2.000000       0.541900       0.354800       10.359000      22.773000      12.414000      2.514100       0.407900       0.000000      
1003.000000    68.790000      2.021400       0.414300       0.356000       1522.800000    1.306400       0.389100       1.300000       0.000000       2.000000       0.494100       0.394800       10.370000      22.796000      12.426000      1.819700       0.420900       0.000000      
1004.000000    67.490000      2.022900       0.419200       0.401000       1485.600000    1.249700       0.388400       1.350000       0.000000       2.000000       0.507000       0.395700       10.380000      22.818000      12.438000      1.738600       0.420600       0.000000      
1005.000000    72.030000      2.071600       0.410900       0.503000       1450.000000    1.275100       0.380700       1.900000       0.000000       2.000000       0.596400       0.358500       10.390000      22.841000      12.451000      1.774800       0.416000       0.000000      
1006.000000    73.920000      2.045800       0.433100       0.476000       1450.000000    1.259600       0.373300       1.830000       0.000000       2.000000       0.576600       0.384000       10.401000      22.864000      12.463000      1.752600       0.416000       0.000000      
1007.000000    62.550000      2.006900       0.426200       0.557000       1579.700000    1.367000       0.407000       1.620000       0.000000       2.000000       0.503300       0.387900       10.411000      22.886000      12.476000      1.906100       0.422800       0.000000      
1008.000000    76.690000      2.038900       0.430200       0.939000       1450.000000    1.255700       0.388400       1.580000       0.000000       2.000000       0.614600       0.387900       10.421000      22.909000      12.488000      1.746700       0.416000       0.000000      
1009.000000    71.530000      2.037000       0.401100       1.079000       1553.600000    1.265300       0.393000       1.410000       0.000000       2.000000       0.533700       0.386300       10.432000      22.932000      12.500000      1.760300       0.428400       0.000000      
1010.000000    71.060000      2.059200       0.408800       0.548000       1671.200000    1.500100       0.396600       1.600000       0.000000       2.000000       0.549500       0.365500       10.442000      22.955000      12.513000      2.097000       0.426700       0.000000      
1011.000000    74.120000      2.068600       0.425600       0.300000       1450.000000    1.273900       0.385500       1.510000       0.000000       2.000000       0.578700       0.377200       10.452000      22.977000      12.525000      1.772100       0.416000       0.000000      
1012.000000    63.570000      1.990500       0.415900       0.308000       1450.000000    1.227100       0.373800       1.430000       0.000000       2.000000       0.512300       0.391500       10.463000      23.000000      12.538000      1.705200       0.416000       0.000000      
1013.000000    70.770000      2.012100       0.442800       0.354000       1450.000000    1.240300       0.371800       1.130000       0.000000       2.000000       0.551200       0.394800       10.473000      23.023000      12.550000      1.723700       0.416000       0.000000      
1014.000000    70.160000      2.118400       0.386600       0.480000       1897.000000    2.193400       0.380200       2.150000       0.000000       2.000000       0.548600       0.337200       10.483000      23.046000      12.562000      3.110800       0.415800       0.000000      
1015.000000    68.900000      2.030500       0.412500       0.518000       1615.100000    1.813100       0.372200       1.680000       0.000000       2.000000       0.484600       0.373400       10.494000      23.068000      12.575000      2.549700       0.395800       0.000000      
1016.000000    72.240000      2.004800       0.411700       0.512000       1450.000000    1.236500       0.379600       1.460000       0.000000       2.000000       0.578100       0.388800       10.504000      23.091000      12.587000      1.717500       0.416000       0.000000      
1017.000000    67.920000      2.109800       0.398800       0.359000       1782.000000    1.992200       0.367000       2.130000       0.000000       2.000000       0.556400       0.342100       10.514000      23.114000      12.600000      2.811600       0.412800       0.000000      
1018.000000    68.660000      2.027500       0.417500       0.523000       1602.800000    1.265400       0.401000       1.280000       0.000000       2.000000       0.537700       0.392100       10.525000      23.136000      12.612000      1.758100       0.433300       0.000000      
1019.000000    74.220000      2.059200       0.405300       0.427000       1603.800000    1.446700       0.379000       1.880000       0.000000       2.000000       0.571700       0.359600       10.535000      23.159000      12.624000      2.017300       0.422700       0.000000      
1020.000000    64.750000      2.034100       0.412600       0.385000       1749.100000    1.722200       0.392600       1.770000       0.000000       2.000000       0.514700       0.367600       10.545000      23.182000      12.637000      2.415100       0.420900       0.000000      
1021.000000    76.240000      2.058400       0.410100       0.457000       1691.000000    1.663400       0.370400       1.790000       0.000000       2.000000       0.546400       0.358900       10.556000      23.205000      12.649000      2.329400       0.419000       0.000000      
1022.000000    73.970000      2.017700       0.446200       0.404000       1450.000000    1.245500       0.379700       1.420000       0.000000       2.000000       0.515700       0.391500       10.566000      23.227000      12.661000      1.728500       0.416000       0.000000      
1023.000000    72.000000      2.063200       0.403400       0.525000       1666.400000    1.717900       0.403100       1.650000       0.000000       2.000000       0.545500       0.356700       10.576000      23.250000      12.674000      2.407400       0.412600       0.000000      
1024.000000    68.210000      2.028000       0.425100       0.300000       1450.000000    1.252100       0.378300       1.280000       0.000000       2.000000       0.619000       0.394400       10.587000      23.273000      12.686000      1.737300       0.416000       0.000000      
1025.000000    75.130000      1.964300       0.478200       0.331000       1450.000000    1.214100       0.397800       0.970000       0.000000       2.000000       0.598400       0.429600       10.597000      23.296000      12.699000      1.682800       0.416000       0.000000      
1026.000000    67.460000      2.006700       0.423300       0.300000       1490.200000    1.244200       0.384800       1.440000       0.000000       2.000000       0.512200       0.401900       10.607000      23.318000      12.711000      1.725300       0.421100       0.000000      
1027.000000    68.400000      2.099900       0.376200       0.397000       1756.300000    2.639900       0.340000       1.990000       0.000000       2.000000       0.468500       0.346900       10.618000      23.341000      12.723000      3.772300       0.364300       0.000000      
1028.000000    77.120000      2.054100       0.431500       0.417000       1450.000000    1.268900       0.376400       1.420000       0.000000       2.000000       0.598100       0.382900       10.628000      23.364000      12.736000      1.759700       0.416000       0.000000      
