~Version Information
VERS.                          2.0 : CWLS LAS LOG DATA FORMAT VERSION 2.0
WRAP.                          NO  : One line per depth step
~Well Information
#MNEM.MEAS UNIT            DATA             DESCRIPTION
STRT .M          1000.0000              : First depth
STOP .M          4200.0000              : Last depth
STEP .M             1.0000              : Step
NULL .      -999.25                      : Null value
WELL .      AGB-02                      : Well name
~Curve Information
#MNEM .UNIT                    DESCRIPTION
DEPT      .M                   : DEPT
GR        .API                 : GR
RHOB      .G/C3                : RHOB
NPHI      .V/V                 : NPHI
RT        .OHMM                : RT
VP        .M/S                 : VP
E_STAT    .GPA                 : E_STAT
NU_STAT   .-                   : NU_STAT
UCS       .MPA                 : UCS
IS_CORE   .-                   : IS_CORE
FACIES    .-                   : FACIES
VSH_TRUE  .V/V                 : VSH_TRUE
PHI_TRUE  .V/V                 : PHI_TRUE
PP_MPA    .MPA                 : PP_MPA
SV_MPA    .MPA                 : SV_MPA
SIG_EFF_MPA.MPA                 : SIG_EFF_MPA
E_DYN     .GPA                 : E_DYN
NU_DYN    .-                   : NU_DYN
IS_HC     .-                   : IS_HC
~Parameter Information
# Generated by GeoMech-LogML synthetic generator (Agbada-like physics).
~A
1000.000000    60.320000      2.131400       0.342800       0.355000       2040.900000    3.774200       0.274300       2.650000       0.000000       1.000000       0.373300       0.329100       9.917000       24.559000      14.642000      6.322100       0.314200       0.000000      
1001.000000    59.500000      2.101200       0.376200       0.374000       2036.200000    3.605600       0.300200       2.340000       0.000000       1.000000       0.356900       0.340800       9.927000       24.584000      14.657000      6.006200       0.324000       0.000000      
1002.000000    38.540000      2.095500       0.348600       0.366000       2487.000000    5.326000       0.279900       2.640000       0.000000       1.000000       0.218000       0.331400       9.937000       24.608000      14.672000      9.438400       0.306900       0.000000      
1003.000000    53.480000      2.119100       0.355000       0.418000       2176.800000    4.510100       0.248500       2.940000       0.000000       1.000000       0.288900       0.331800       9.947000       24.633000      14.686000      7.748400       0.285600       0.000000      
1004.000000    51.710000      2.088700       0.344200       0.404000       2414.000000    4.734600       0.296000       2.590000       0.000000       1.000000       0.263900       0.336400       9.956000       24.657000      14.701000      8.200500       0.330500       0.000000      
1005.000000    34.150000      2.141900       0.318300       0.721000       2779.400000    6.566000       0.290100       3.430000       0.000000       1.000000       0.159000       0.314700       9.966000       24.682000      14.716000      12.284300      0.300200       0.000000      
1006.000000    40.910000      2.177700       0.315100       0.308000       2536.100000    6.365800       0.204800       3.420000       0.000000       1.000000       0.190600       0.304800       9.976000       24.706000      14.730000      11.795300      0.244200       0.000000      
1007.000000    43.640000      2.135200       0.324200       0.356000       2496.100000    5.381900       0.296500       4.090000       0.000000       1.000000       0.272000       0.312300       9.986000       24.731000      14.745000      9.554700       0.311500       0.000000      
1008.000000    50.200000      2.125000       0.322800       0.638000       2393.400000    4.697200       0.297900       3.060000       0.000000       1.000000       0.315900       0.320500       9.996000       24.756000      14.759000      8.121400       0.333100       0.000000      
1009.000000    36.150000      2.187300       0.298400       0.580000       2858.600000    7.446700       0.213400       3.770000       0.000000       1.000000       0.122700       0.296400       10.006000      24.780000      14.774000      14.584500      0.260800       0.000000      
1010.000000    41.390000      2.138300       0.347600       0.442000       2623.300000    5.717400       0.296800       2.450000       0.000000       1.000000       0.204000       0.328600       10.016000      24.805000      14.789000      10.286900      0.319900       0.000000      
1011.000000    46.010000      2.111700       0.354000       0.300000       2523.900000    5.042600       0.308900       2.140000       0.000000       1.000000       0.209800       0.349300       10.026000      24.829000      14.803000      8.828200       0.337400       0.000000      
1012.000000    52.030000      2.086900       0.344500       0.376000       2327.200000    4.396500       0.295200       2.180000       0.000000       1.000000       0.293400       0.337400       10.036000      24.854000      14.818000      7.514500       0.334100       0.000000      
1013.000000    52.070000      2.110700       0.354400       0.381000       2274.800000    4.567500       0.285000       2.920000       0.000000       1.000000       0.297900       0.329000       10.046000      24.878000      14.833000      7.853400       0.311100       0.000000      
1014.000000    52.250000      2.109900       0.359400       0.300000       2199.600000    4.034600       0.288200       2.520000       0.000000       1.000000       0.316200       0.342900       10.056000      24.903000      14.847000      6.807300       0.333200       0.000000      
1015.000000    49.820000      2.095000       0.365900       0.479000       2160.800000    4.024300       0.306600       2.410000       0.000000       1.000000       0.291800       0.350700       10.066000      24.927000      14.862000      6.786200       0.322200       0.000000      
1016.000000    35.300000      2.072200       0.364900       0.343000       2419.400000    4.801800       0.298400       1.670000       0.000000       1.000000       0.190100       0.361400       10.075000      24.952000      14.877000      8.322200       0.325400       0.000000      
1017.000000    48.420000      2.147100       0.330900       0.367000       2452.700000    5.694500       0.229800       2.660000       0.000000       1.000000       0.229300       0.315400       10.085000      24.977000      14.891000      10.220600      0.275000       0.000000      
1018.000000    42.690000      2.184500       0.302200       0.762000       2556.100000    6.336700       0.205700       4.350000       0.000000       1.000000       0.223900       0.296400       10.095000      25.001000      14.906000      11.696300      0.258700       0.000000      
1019.000000    45.920000      2.110300       0.343900       0.645000       2519.100000    4.957300       0.314800       3.200000       0.000000       1.000000       0.263800       0.332200       10.105000      25.026000      14.921000      8.636200       0.341800       0.000000      
1020.000000    52.670000      2.116800       0.325300       0.300000       2261.100000    4.589500       0.264200       2.400000       0.000000       1.000000       0.276500       0.336800       10.115000      25.050000      14.935000      7.885500       0.306700       0.000000      
1021.000000    48.950000      2.085600       0.363800       0.346000       2253.800000    4.158500       0.325000       2.210000       0.000000       1.000000       0.307300       0.340900       10.125000      25.075000      14.950000      7.035900       0.334300       0.000000      
1022.000000    49.930000      2.126600       0.334100       0.474000       2303.700000    4.897900       0.259500       2.780000       0.000000       1.000000       0.268700       0.328600       10.135000      25.099000      14.964000      8.507800       0.294600       0.000000      
1023.000000    41.570000      2.093800       0.356800       0.300000       2418.200000    5.086900       0.276600       2.710000       0.000000       1.000000       0.238500       0.333000       10.145000      25.124000      14.979000      8.897700       0.307600       0.000000      
1024.000000    51.090000      2.110500       0.335800       0.342000       2265.100000    4.429800       0.298300       2.490000       0.000000       1.000000       0.304600       0.332800       10.155000      25.149000      14.994000      7.561100       0.320200       0.000000      
1025.000000    48.960000      2.127200       0.311300       0.300000       2410.500000    5.543500       0.230000       2.720000       0.000000       1.000000       0.250000       0.311200       10.165000      25.173000      15.008000      9.868300       0.271100       0.000000      
1026.000000    51.790000      2.079800       0.362700       0.395000       2153.100000    3.840900       0.304400       2.220000       0.000000       1.000000       0.299200       0.355300       10.175000      25.198000      15.023000      6.422600       0.333500       0.000000      
1027.000000    53.800000      2.127100       0.319400       0.435000       2324.300000    5.033700       0.247400       2.820000       0.000000       1.000000       0.276800       0.320600       10.185000      25.222000      15.038000      8.778800       0.289600       0.000000      
1028.000000    41.990000      2.134500       0.316100       0.726000       2598.300000    5.919500       0.277400       3.530000       0.000000       1.000000       0.229000       0.310800       10.194000      25.247000      15.052000      10.697600      0.300300       0.000000      
