~Version Information
VERS.                          2.0 : CWLS LAS LOG DATA FORMAT VERSION 2.0
WRAP.                          NO  : One line per depth step
~Well Information
#MNEM.MEAS UNIT            DATA             DESCRIPTION
STRT .M          1000.0000              : First depth
STOP .M          4200.0000              : Last depth
STEP .M             1.0000              : Step
NULL .      -999.25                      : Null value
WELL .      AGB-02                      : Well name
~Curve Information
#MNEM .UNIT                    DESCRIPTION
DEPT      .M                   : DEPT
GR        .API                 : GR
RHOB      .G/C3                : RHOB
NPHI      .V/V                 : NPHI
RT        .OHMM                : RT
VP        .M/S                 : VP
E_STAT    .GPA                 : E_STAT
NU_STAT   .-                   : NU_STAT
UCS       .MPA                 : UCS
IS_CORE   .-                   : IS_CORE
FACIES    .-                   : FACIES
VSH_TRUE  .V/V                 : VSH_TRUE
PHI_TRUE  .V/V                 : PHI_TRUE
PP_MPA    .MPA                 : PP_MPA
SV_MPA    .MPA                 : SV_MPA
SIG_EFF_MPA.MPA                 : SIG_EFF_MPA
E_DYN     .GPA                 : E_DYN
NU_DYN    .-                   : NU_DYN
IS_HC     .-                   : IS_HC
~Parameter Information
# Generated by GeoMech-LogML synthetic generator (Agbada-like physics).
~A
# ...
3726.000000    43.050000      2.313500       0.222700       0.652000       3525.800000    9.816700       0.239200       12.010000      0.000000       1.000000       0.266700       0.205300       55.978000      91.507000      35.529000      23.028400      0.269800       0.000000      
3727.000000    52.230000      2.309100       0.210800       1.314000       3695.100000    10.001800      0.267400       13.940000      0.000000       1.000000       0.258600       0.201600       56.021000      91.532000      35.510000      24.112000      0.289100       0.000000      
3728.000000    52.140000      2.330300       0.217700       0.923000       3658.900000    9.776500       0.282200       11.390000      0.000000       1.000000       0.296200       0.202500       56.065000      91.556000      35.492000      22.841600      0.305100       0.000000      
3729.000000    49.810000      2.314800       0.243300       1.064000       3456.000000    9.608500       0.245100       10.550000      0.000000       1.000000       0.286000       0.207500       56.108000      91.581000      35.473000      22.002200      0.272500       0.000000      
3730.000000    35.310000      2.329400       0.184900       0.874000       3757.200000    10.479400      0.207300       12.770000      0.000000       1.000000       0.162500       0.196200       56.151000      91.605000      35.454000      28.238000      0.232800       0.000000      
3731.000000    40.320000      2.336900       0.211500       0.778000       3638.400000    10.060100      0.253300       12.990000      0.000000       1.000000       0.257400       0.198000       56.195000      91.630000      35.435000      24.564200      0.273500       0.000000      
3732.000000    52.180000      2.330100       0.224400       1.362000       3443.500000    9.551800       0.252000       13.960000      0.000000       1.000000       0.304800       0.204200       56.238000      91.655000      35.417000      21.772200      0.276900       0.000000      
3733.000000    45.020000      2.335500       0.192300       0.872000       3700.700000    10.141900      0.243400       14.270000      0.000000       1.000000       0.236800       0.201200       56.281000      91.679000      35.398000      25.177800      0.277300       0.000000      
3734.000000    46.620000      2.314400       0.237400       0.610000       3538.200000    9.737000       0.240900       10.440000      0.000000       1.000000       0.257900       0.212600       56.325000      91.704000      35.379000      22.730900      0.278700       0.000000      
3735.000000    48.160000      2.321500       0.233100       0.877000       3375.100000    9.230800       0.247400       9.840000       0.000000       1.000000       0.298900       0.220000       56.368000      91.728000      35.360000      20.384200      0.286000       0.000000      
3736.000000    38.110000      2.365600       0.214600       0.941000       3746.900000    10.222200      0.256500       11.040000      0.000000       1.000000       0.257200       0.190800       56.412000      91.753000      35.341000      25.883000      0.281500       0.000000      
3737.000000    50.130000      2.297100       0.253000       0.778000       3357.500000    9.378800       0.244300       10.790000      0.000000       1.000000       0.284600       0.213500       56.455000      91.777000      35.322000      21.053500      0.262600       0.000000      
3738.000000    40.200000      2.338200       0.191400       1.050000       3938.100000    10.501200      0.226300       14.890000      0.000000       1.000000       0.179300       0.189800       56.499000      91.802000      35.303000      29.125700      0.268300       0.000000      
3739.000000    43.500000      2.347900       0.219200       1.147000       3658.400000    10.264900      0.228500       14.630000      0.000000       1.000000       0.213800       0.195900       56.543000      91.827000      35.284000      26.358300      0.246400       0.000000      
3740.000000    40.980000      2.349100       0.208500       0.797000       3629.300000    10.267800      0.208900       12.140000      0.000000       1.000000       0.214000       0.193500       56.586000      91.851000      35.265000      26.423800      0.236200       0.000000      
3741.000000    54.380000      2.305100       0.216100       1.632000       3324.800000    8.985800       0.249200       10.690000      0.000000       1.000000       0.336900       0.212900       56.630000      91.876000      35.246000      19.477600      0.289300       0.000000      
3742.000000    41.610000      2.373000       0.177800       1.585000       4032.500000    10.545400      0.237900       17.370000      0.000000       1.000000       0.173200       0.180800       56.674000      91.900000      35.227000      31.009500      0.268100       0.000000      
3743.000000    44.210000      2.354300       0.197600       0.807000       3762.900000    10.193200      0.275900       13.990000      0.000000       1.000000       0.263800       0.187100       56.717000      91.925000      35.207000      25.904200      0.282700       0.000000      
3744.000000    49.900000      2.302300       0.253800       0.521000       3246.800000    8.821400       0.261100       7.960000       0.000000       1.000000       0.309100       0.227900       56.761000      91.949000      35.188000      18.891800      0.282000       0.000000      
3745.000000    56.180000      2.335300       0.242800       0.871000       3484.600000    9.803400       0.235800       12.570000      1.000000       1.000000       0.264500       0.202600       56.805000      91.974000      35.169000      23.336500      0.256500       0.000000      
3746.000000    45.640000      2.341700       0.175200       1.626000       3622.800000    10.023900      0.246800       15.150000      0.000000       1.000000       0.274200       0.189000       56.849000      91.998000      35.150000      24.739700      0.267300       0.000000      
3747.000000    51.690000      2.331800       0.239900       1.112000       3470.700000    9.315900       0.263600       11.730000      0.000000       1.000000       0.320800       0.208800       56.893000      92.023000      35.130000      20.938200      0.298800       0.000000      
3748.000000    43.410000      2.333100       0.185200       1.006000       3867.700000    10.403000      0.236800       18.240000      0.000000       1.000000       0.188700       0.190500       56.937000      92.048000      35.111000      28.357900      0.262900       0.000000      
3749.000000    56.090000      2.317900       0.232000       0.599000       3243.400000    8.789300       0.257000       10.470000      0.000000       1.000000       0.348700       0.214800       56.980000      92.072000      35.092000      18.833300      0.285200       0.000000      
3750.000000    39.140000      2.307200       0.187600       1.625000       4065.000000    10.499800      0.249300       13.970000      0.000000       1.000000       0.127200       0.192100       57.024000      92.097000      35.072000      30.867000      0.264600       0.000000      
3751.000000    52.410000      2.328800       0.189600       0.758000       3488.400000    9.736000       0.233700       12.750000      0.000000       1.000000       0.304100       0.189600       57.068000      92.121000      35.053000      23.090300      0.261500       0.000000      
3752.000000    48.270000      2.340300       0.202800       1.463000       3623.600000    10.015800      0.245200       13.910000      0.000000       1.000000       0.274200       0.187400       57.112000      92.146000      35.033000      24.857000      0.265000       0.000000      
3753.000000    47.100000      2.312500       0.230400       0.531000       3468.600000    9.522900       0.239600       11.930000      0.000000       1.000000       0.273200       0.212000       57.156000      92.170000      35.014000      22.009100      0.275200       0.000000      
3754.000000    45.550000      2.350300       0.181600       1.315000       3676.200000    10.219100      0.222300       13.390000      0.000000       1.000000       0.221500       0.191200       57.201000      92.195000      34.994000      26.563300      0.248100       0.000000      
