~Version Information
VERS.                          2.0 : CWLS LAS LOG DATA FORMAT VERSION 2.0
WRAP.                          NO  : One line per depth step
~Well Information
#MNEM.MEAS UNIT            DATA             DESCRIPTION
STRT .M          1000.0000              : First depth
STOP .M          4200.0000              : Last depth
STEP .M             1.0000              : Step
NULL .      -999.25                      : Null value
WELL .      AGB-02                      : Well name
~Curve Information
#MNEM .UNIT                    DESCRIPTION
DEPT      .M                   : DEPT
GR        .API                 : GR
RHOB      .G/C3                : RHOB
NPHI      .V/V                 : NPHI
RT        .OHMM                : RT
VP        .M/S                 : VP
E_STAT    .GPA                 : E_STAT
NU_STAT   .-                   : NU_STAT
UCS       .MPA                 : UCS
IS_CORE   .-                   : IS_CORE
FACIES    .-                   : FACIES
VSH_TRUE  .V/V                 : VSH_TRUE
PHI_TRUE  .V/V                 : PHI_TRUE
PP_MPA    .MPA                 : PP_MPA
SV_MPA    .MPA                 : SV_MPA
SIG_EFF_MPA.MPA                 : SIG_EFF_MPA
E_DYN     .GPA                 : E_DYN
NU_DYN    .-                   : NU_DYN
IS_HC     .-                   : IS_HC
~Parameter Information
# Generated by GeoMech-LogML synthetic generator (Agbada-like physics).
~A
# ...
2885.000000    94.650000      2.262100       0.337900       2.116000       1886.400000    1.557700       0.411400       5.570000       0.000000       3.000000       0.886000       0.251700       29.926000      70.853000      40.927000      2.437000       0.441300       0.000000      
2886.000000    89.250000      2.262000       0.329400       1.100000       2135.900000    2.152100       0.401100       5.840000       0.000000       3.000000       0.838300       0.246700       29.945000      70.878000      40.933000      3.422600       0.434600       0.000000      
2887.000000    96.360000      2.228300       0.390900       2.370000       1610.200000    1.245700       0.393000       4.710000       0.000000       3.000000       0.920000       0.283000       29.964000      70.902000      40.938000      1.933200       0.434000       0.000000      
2888.000000    93.360000      2.255400       0.349200       1.114000       1949.900000    1.679400       0.410300       5.310000       0.000000       3.000000       0.848000       0.261100       29.983000      70.927000      40.943000      2.636800       0.440200       0.000000      
2889.000000    93.530000      2.272900       0.333100       1.619000       2220.900000    1.920700       0.420000       7.460000       0.000000       3.000000       0.841100       0.255200       30.003000      70.951000      40.949000      3.035900       0.448400       0.000000      
2890.000000    99.340000      2.264400       0.349700       1.915000       1847.900000    1.279700       0.420000       5.940000       0.000000       3.000000       0.910600       0.256300       30.022000      70.976000      40.954000      1.988400       0.450000       0.000000      
2891.000000    94.810000      2.226700       0.346100       1.348000       1946.600000    1.659500       0.420000       6.110000       0.000000       3.000000       0.836100       0.265600       30.041000      71.000000      40.959000      2.604900       0.440000       0.000000      
2892.000000    100.830000     2.246200       0.343600       1.583000       1873.100000    1.270800       0.420000       5.330000       0.000000       3.000000       0.892700       0.264500       30.061000      71.025000      40.964000      1.974300       0.450000       0.000000      
2893.000000    94.280000      2.236900       0.350400       1.457000       1673.700000    1.254200       0.414400       6.030000       0.000000       3.000000       0.924500       0.256700       30.080000      71.050000      40.969000      1.948000       0.439500       0.000000      
2894.000000    93.250000      2.293900       0.327200       1.504000       1993.400000    2.239500       0.382300       6.380000       0.000000       3.000000       0.861600       0.234800       30.100000      71.074000      40.974000      3.573300       0.419900       0.000000      
2895.000000    93.550000      2.240500       0.337500       1.539000       2003.400000    1.986100       0.399800       5.720000       0.000000       3.000000       0.868400       0.240300       30.119000      71.099000      40.979000      3.146800       0.430300       0.000000      
2896.000000    98.480000      2.258000       0.364800       1.455000       1960.300000    1.569600       0.420000       5.630000       0.000000       3.000000       0.875700       0.255200       30.139000      71.123000      40.985000      2.459000       0.445700       0.000000      
2897.000000    102.250000     2.252300       0.357200       1.203000       2008.400000    1.811300       0.387000       5.800000       0.000000       3.000000       0.850100       0.254900       30.158000      71.148000      40.990000      2.856600       0.438700       0.000000      
2898.000000    92.050000      2.283100       0.302600       1.510000       2262.000000    2.974000       0.382900       6.520000       0.000000       3.000000       0.812000       0.228300       30.178000      71.172000      40.995000      4.851000       0.413900       0.000000      
2899.000000    98.170000      2.258600       0.369800       1.879000       2017.500000    1.629600       0.420000       5.260000       0.000000       3.000000       0.851600       0.262100       30.197000      71.197000      41.000000      2.557900       0.446800       0.000000      
2900.000000    93.820000      2.275000       0.331500       1.223000       1992.500000    1.920700       0.403800       5.850000       0.000000       3.000000       0.856300       0.248700       30.217000      71.221000      41.005000      3.039200       0.433500       0.000000      
2901.000000    90.150000      2.261700       0.347900       1.567000       2082.000000    2.364100       0.392200       5.370000       0.000000       3.000000       0.803600       0.251700       30.237000      71.246000      41.009000      3.788400       0.421300       0.000000      
2902.000000    93.520000      2.270200       0.330500       1.786000       2062.500000    1.987800       0.412100       5.820000       0.000000       3.000000       0.832000       0.255400       30.256000      71.271000      41.014000      3.151900       0.435900       0.000000      
2903.000000    98.540000      2.213500       0.365800       2.017000       1864.800000    1.251100       0.415300       4.810000       0.000000       3.000000       0.876500       0.271900       30.276000      71.295000      41.019000      1.945000       0.450000       0.000000      
2904.000000    94.640000      2.266100       0.343700       1.534000       2075.900000    1.860000       0.408400       5.980000       0.000000       3.000000       0.851300       0.253000       30.296000      71.320000      41.024000      2.939400       0.441700       0.000000      
2905.000000    95.100000      2.246500       0.334800       1.720000       1908.000000    1.502800       0.409400       6.370000       0.000000       3.000000       0.886300       0.253500       30.315000      71.344000      41.029000      2.352200       0.444700       0.000000      
2906.000000    88.130000      2.286500       0.312000       1.433000       2135.000000    2.627000       0.386400       6.880000       0.000000       3.000000       0.813000       0.239600       30.335000      71.369000      41.034000      4.244200       0.416000       0.000000      
2907.000000    93.410000      2.267900       0.325300       0.838000       2100.900000    2.054000       0.406400       5.320000       0.000000       3.000000       0.820200       0.257400       30.355000      71.393000      41.038000      3.264600       0.435900       0.000000      
2908.000000    88.680000      2.268400       0.328900       1.449000       2124.200000    2.101200       0.413400       5.500000       0.000000       3.000000       0.828100       0.252700       30.375000      71.418000      41.043000      3.344400       0.435800       0.000000      
2909.000000    94.010000      2.269300       0.319900       2.105000       1893.500000    1.497500       0.418800       6.910000       0.000000       3.000000       0.884100       0.255200       30.395000      71.442000      41.048000      2.344600       0.444600       0.000000      
2910.000000    86.760000      2.262400       0.334300       1.177000       2145.900000    2.831800       0.366500       6.620000       0.000000       3.000000       0.771600       0.247200       30.415000      71.467000      41.052000      4.605400       0.406800       0.000000      
2911.000000    97.070000      2.251600       0.335800       1.775000       2148.300000    1.834500       0.420000       6.570000       0.000000       3.000000       0.864500       0.248700       30.434000      71.492000      41.057000      2.899200       0.446600       0.000000      
2912.000000    94.330000      2.253000       0.362600       1.537000       1952.100000    1.334600       0.420000       5.890000       0.000000       3.000000       0.886700       0.261200       30.454000      71.516000      41.062000      2.081100       0.450000       0.000000      
2913.000000    89.900000      2.233500       0.344000       1.033000       2049.900000    1.992200       0.415200       5.040000       0.000000       3.000000       0.804100       0.264700       30.474000      71.541000      41.066000      3.163000       0.433400       0.000000      
