~Version Information
VERS.                          2.0 : CWLS LAS LOG DATA FORMAT VERSION 2.0
WRAP.                          NO  : One line per depth step
~Well Information
#MNEM.MEAS UNIT            DATA             DESCRIPTION
STRT .M          1000.0000              : First depth
STOP .M          4200.0000              : Last depth
STEP .M             1.0000              : Step
NULL .      -999.25                      : Null value
WELL .      AGB-02                      : Well name
~Curve Information
#MNEM .UNIT                    DESCRIPTION
DEPT      .M                   : DEPT
GR        .API                 : GR
RHOB      .G/C3                : RHOB
NPHI      .V/V                 : NPHI
RT        .OHMM                : RT
VP        .M/S                 : VP
E_STAT    .GPA                 : E_STAT
NU_STAT   .-                   : NU_STAT
UCS       .MPA                 : UCS
IS_CORE   .-                   : IS_CORE
FACIES    .-                   : FACIES
VSH_TRUE  .V/V                 : VSH_TRUE
PHI_TRUE  .V/V                 : PHI_TRUE
PP_MPA    .MPA                 : PP_MPA
SV_MPA    .MPA                 : SV_MPA
SIG_EFF_MPA.MPA                 : SIG_EFF_MPA
E_DYN     .GPA                 : E_DYN
NU_DYN    .-                   : NU_DYN
IS_HC     .-                   : IS_HC
~Parameter Information
# Generated by GeoMech-LogML synthetic generator (Agbada-like physics).
~A
# ...
1638.000000    38.450000      2.231200       0.254000       0.511000       3187.400000    8.642900       0.245000       6.000000       0.000000       1.000000       0.169600       0.260300       16.244000      40.228000      23.984000      18.405200      0.263200       0.000000      
1639.000000    42.250000      2.239900       0.273800       0.709000       3370.900000    8.459000       0.279200       7.090000       0.000000       1.000000       0.210300       0.260800       16.254000      40.252000      23.999000      17.756800      0.320500       0.000000      
1640.000000    37.290000      2.256800       0.245600       0.847000       3326.900000    9.317700       0.216600       7.050000       0.000000       0.000000       0.119000       0.250600       16.264000      40.277000      24.013000      21.133100      0.241600       0.000000      
1641.000000    38.850000      2.229200       0.252800       0.505000       3425.700000    9.178900       0.262400       6.500000       0.000000       0.000000       0.116000       0.261500       16.273000      40.302000      24.028000      20.518600      0.278900       0.000000      
1642.000000    17.670000      2.228600       0.258800       0.724000       3508.800000    9.668000       0.232500       6.520000       0.000000       0.000000       0.028600       0.267100       16.283000      40.326000      24.043000      22.881600      0.249600       0.000000      
1643.000000    31.310000      2.220600       0.253600       0.435000       3321.700000    9.178100       0.230900       5.900000       0.000000       0.000000       0.091100       0.265200       16.293000      40.351000      24.057000      20.516800      0.247400       0.000000      
1644.000000    27.580000      2.238900       0.231200       0.903000       3443.900000    9.574800       0.218800       6.220000       0.000000       0.000000       0.057900       0.260600       16.303000      40.375000      24.072000      22.385900      0.243600       0.000000      
1645.000000    29.220000      2.252400       0.256200       0.780000       3192.300000    9.210600       0.194900       6.500000       0.000000       0.000000       0.129900       0.243800       16.313000      40.400000      24.087000      20.658400      0.200000       0.000000      
1646.000000    40.000000      2.257100       0.256700       0.506000       3248.600000    8.886500       0.233500       7.200000       0.000000       0.000000       0.166000       0.254700       16.323000      40.424000      24.101000      19.323900      0.263600       0.000000      
1647.000000    25.850000      2.313100       0.204500       0.483000       3622.600000    10.264400      0.167700       8.010000       0.000000       0.000000       0.020000       0.230100       16.333000      40.449000      24.116000      27.255200      0.201900       0.000000      
1648.000000    36.510000      2.218600       0.250100       0.627000       3387.800000    9.259400       0.226500       6.350000       0.000000       0.000000       0.105700       0.257900       16.343000      40.473000      24.131000      20.870600      0.258600       0.000000      
1649.000000    94.480000      2.099600       0.436600       1.124000       1450.000000    1.158200       0.381400       2.770000       0.000000       3.000000       0.886100       0.342900       16.353000      40.498000      24.145000      1.798600       0.416000       0.000000      
1650.000000    88.260000      2.079000       0.430900       1.255000       1450.000000    1.147200       0.385900       2.730000       0.000000       3.000000       0.832100       0.361600       16.363000      40.523000      24.160000      1.781000       0.416000       0.000000      
1651.000000    91.920000      2.077700       0.406800       0.747000       1450.000000    1.146600       0.397800       2.360000       0.000000       3.000000       0.828100       0.354200       16.373000      40.547000      24.174000      1.779900       0.416000       0.000000      
1652.000000    104.300000     2.081600       0.448400       1.685000       1450.000000    1.148700       0.403500       2.260000       0.000000       3.000000       0.944700       0.363400       16.383000      40.572000      24.189000      1.783300       0.416000       0.000000      
1653.000000    98.380000      2.115100       0.429600       0.892000       1450.000000    1.166700       0.392700       2.460000       0.000000       3.000000       0.920600       0.344000       16.392000      40.596000      24.204000      1.811900       0.416000       0.000000      
1654.000000    97.410000      2.110800       0.431500       0.964000       1450.000000    1.164500       0.372200       2.910000       0.000000       3.000000       0.917200       0.341400       16.402000      40.621000      24.218000      1.808200       0.416000       0.000000      
1655.000000    87.350000      2.098000       0.436600       0.892000       1481.500000    1.160900       0.390300       2.840000       0.000000       3.000000       0.808100       0.337300       16.412000      40.645000      24.233000      1.802400       0.420100       0.000000      
1656.000000    102.130000     2.131900       0.434200       0.978000       1450.000000    1.175900       0.385300       2.130000       0.000000       3.000000       0.940000       0.350900       16.422000      40.670000      24.248000      1.826300       0.416000       0.000000      
1657.000000    87.110000      2.143400       0.390400       0.763000       1552.700000    1.192100       0.387200       2.630000       0.000000       3.000000       0.780200       0.328000       16.432000      40.694000      24.262000      1.852100       0.428300       0.000000      
1658.000000    89.980000      2.093800       0.421500       0.638000       1450.000000    1.155700       0.390400       2.200000       0.000000       3.000000       0.832400       0.348000       16.442000      40.719000      24.277000      1.793700       0.416000       0.000000      
1659.000000    99.050000      2.092700       0.421600       0.691000       1450.000000    1.155200       0.386000       2.310000       0.000000       3.000000       0.911100       0.350600       16.452000      40.744000      24.292000      1.792700       0.416000       0.000000      
1660.000000    33.340000      2.207400       0.248000       0.597000       3298.900000    9.140500       0.209900       5.920000       1.000000       0.000000       0.098500       0.262900       16.462000      40.768000      24.306000      20.309600      0.242000       0.000000      
1661.000000    27.050000      2.209500       0.236800       0.830000       3361.400000    9.484500       0.196400       6.430000       0.000000       0.000000       0.068700       0.255100       16.472000      40.793000      24.321000      21.862400      0.220100       0.000000      
1662.000000    37.370000      2.233600       0.234500       0.613000       3291.900000    9.364900       0.181400       6.470000       0.000000       0.000000       0.110600       0.246600       16.482000      40.817000      24.336000      21.286200      0.217200       0.000000      
1663.000000    32.540000      2.258500       0.252700       0.962000       3270.000000    9.522300       0.163800       8.080000       0.000000       0.000000       0.099600       0.240700       16.492000      40.842000      24.350000      22.031500      0.188600       0.000000      
1664.000000    25.730000      2.247100       0.258100       1.176000       3363.100000    9.591100       0.187400       7.450000       0.000000       0.000000       0.092500       0.244100       16.502000      40.866000      24.365000      22.370500      0.216600       0.000000      
1665.000000    29.550000      2.237800       0.235800       0.723000       3421.800000    9.658800       0.202500       8.820000       0.000000       0.000000       0.073200       0.249100       16.511000      40.891000      24.379000      22.716900      0.226800       0.000000      
1666.000000    27.820000      2.282300       0.197600       0.632000       3604.800000    10.181100      0.215200       9.160000       0.000000       0.000000       0.055700       0.225900       16.521000      40.915000      24.394000      26.175700      0.214700       0.000000      
