~Version Information
VERS.                          2.0 : CWLS LAS LOG DATA FORMAT VERSION 2.0
WRAP.                          NO  : One line per depth step
~Well Information
#MNEM.MEAS UNIT            DATA             DESCRIPTION
STRT .M          1000.0000              : First depth
STOP .M          4200.0000              : Last depth
STEP .M             1.0000              : Step
NULL .      -999.25                      : Null value
WELL .      AGB-03                      : Well name
~Curve Information
#MNEM .UNIT                    DESCRIPTION
DEPT      .M                   : DEPT
GR        .API                 : GR
RHOB      .G/C3                : RHOB
NPHI      .V/V                 : NPHI
RT        .OHMM                : RT
VP        .M/S                 : VP
E_STAT    .GPA                 : E_STAT
NU_STAT   .-                   : NU_STAT
UCS       .MPA                 : UCS
IS_CORE   .-                   : IS_CORE
FACIES    .-                   : FACIES
VSH_TRUE  .V/V                 : VSH_TRUE
PHI_TRUE  .V/V                 : PHI_TRUE
PP_MPA    .MPA                 : PP_MPA
SV_MPA    .MPA                 : SV_MPA
SIG_EFF_MPA.MPA                 : SIG_EFF_MPA
E_DYN     .GPA                 : E_DYN
NU_DYN    .-                   : NU_DYN
IS_HC     .-                   : IS_HC
~Parameter Information
# Generated by GeoMech-LogML synthetic generator (Agbada-like physics).
~A
# ...
2885.000000    91.870000      2.226400       0.344400       1.954000       1976.600000    1.482800       0.420000       4.060000       0.000000       3.000000       0.888600       0.262500       29.174000      70.116000      40.942000      1.986200       0.450000       0.000000      
2886.000000    92.950000      2.281100       0.327300       1.800000       2041.200000    2.501700       0.387000       6.400000       0.000000       3.000000       0.843200       0.245200       29.184000      70.140000      40.956000      3.419700       0.427900       0.000000      
2887.000000    95.960000      2.248900       0.321700       2.799000       2003.800000    2.180800       0.399400       5.230000       0.000000       3.000000       0.868800       0.244900       29.194000      70.164000      40.970000      2.961300       0.435500       0.000000      
2888.000000    78.190000      2.309600       0.281200       1.431000       2768.600000    7.015100       0.321900       8.390000       0.000000       2.000000       0.603300       0.219200       29.204000      70.189000      40.985000      10.708000      0.356500       0.000000      
2889.000000    79.230000      2.299400       0.285700       1.531000       2835.000000    7.227300       0.322000       8.260000       0.000000       2.000000       0.591500       0.218500       29.214000      70.213000      40.999000      11.100800      0.358000       0.000000      
2890.000000    69.830000      2.276700       0.262700       0.991000       2863.800000    7.601100       0.317900       8.560000       0.000000       2.000000       0.539600       0.227400       29.224000      70.237000      41.013000      11.808900      0.346500       0.000000      
2891.000000    75.300000      2.333300       0.263300       1.542000       2956.500000    8.272800       0.300400       9.430000       0.000000       2.000000       0.542700       0.213900       29.234000      70.261000      41.027000      13.136100      0.342200       0.000000      
2892.000000    67.130000      2.290400       0.266600       1.485000       2995.900000    8.308700       0.309800       7.860000       0.000000       2.000000       0.517100       0.220300       29.244000      70.286000      41.041000      13.208100      0.342800       0.000000      
2893.000000    71.360000      2.320700       0.265900       1.826000       2767.500000    7.500100       0.297500       7.940000       0.000000       2.000000       0.573100       0.218700       29.254000      70.310000      41.056000      11.612300      0.338600       0.000000      
2894.000000    66.860000      2.326600       0.232600       1.741000       3214.100000    9.861800       0.296800       10.380000      0.000000       2.000000       0.490200       0.194600       29.265000      70.334000      41.070000      16.621900      0.323100       0.000000      
2895.000000    97.080000      2.269000       0.335000       2.303000       1836.300000    2.061500       0.395200       5.340000       0.000000       3.000000       0.873300       0.247400       29.275000      70.359000      41.084000      2.791300       0.426700       0.000000      
2896.000000    93.310000      2.277500       0.346600       1.695000       2051.300000    2.552500       0.389600       5.480000       0.000000       3.000000       0.822900       0.251400       29.285000      70.383000      41.098000      3.490600       0.426800       0.000000      
2897.000000    90.300000      2.240500       0.357200       2.123000       1901.500000    2.109600       0.382800       5.070000       0.000000       3.000000       0.850200       0.254000       29.295000      70.407000      41.112000      2.858800       0.429600       0.000000      
2898.000000    98.250000      2.268400       0.340800       1.530000       1961.600000    2.131500       0.411500       5.210000       0.000000       3.000000       0.868900       0.247200       29.305000      70.432000      41.126000      2.889600       0.434800       0.000000      
2899.000000    85.790000      2.275200       0.321900       1.884000       2000.400000    2.491300       0.374400       5.470000       0.000000       3.000000       0.809900       0.258100       29.315000      70.456000      41.141000      3.402000       0.424500       0.000000      
2900.000000    91.110000      2.246200       0.342600       1.528000       2202.400000    2.374900       0.401600       5.560000       0.000000       3.000000       0.846500       0.247700       29.325000      70.480000      41.155000      3.235200       0.442600       0.000000      
2901.000000    89.440000      2.283100       0.313200       1.285000       2170.200000    3.155200       0.394100       5.000000       0.000000       3.000000       0.812500       0.237300       29.335000      70.504000      41.169000      4.368900       0.416300       0.000000      
2902.000000    92.010000      2.292800       0.344800       1.414000       2207.100000    3.290500       0.372000       6.060000       0.000000       3.000000       0.802400       0.237800       29.345000      70.529000      41.183000      4.569400       0.415500       0.000000      
2903.000000    85.750000      2.233900       0.326900       1.839000       2058.800000    3.224800       0.369400       4.610000       0.000000       3.000000       0.752400       0.255600       29.356000      70.553000      41.197000      4.471600       0.398400       0.000000      
2904.000000    100.820000     2.233100       0.353900       2.050000       1790.900000    1.462500       0.420000       4.870000       0.000000       3.000000       0.934100       0.253000       29.366000      70.577000      41.212000      1.956200       0.447900       0.000000      
2905.000000    91.370000      2.263200       0.320600       2.081000       2172.100000    3.069900       0.390600       6.600000       0.000000       3.000000       0.815700       0.238000       29.376000      70.602000      41.226000      4.242200       0.418600       0.000000      
2906.000000    95.000000      2.209100       0.357300       1.358000       1802.600000    1.711500       0.405000       5.860000       0.000000       3.000000       0.845200       0.269400       29.386000      70.626000      41.240000      2.300200       0.437300       0.000000      
2907.000000    99.770000      2.306500       0.320100       1.657000       2067.100000    2.923100       0.381500       7.010000       0.000000       3.000000       0.835200       0.236100       29.396000      70.650000      41.254000      4.026500       0.415700       0.000000      
2908.000000    96.160000      2.211600       0.357200       1.539000       1769.900000    1.447600       0.405900       3.810000       0.000000       3.000000       0.861400       0.276300       29.406000      70.675000      41.268000      1.935500       0.446600       0.000000      
2909.000000    83.870000      2.342200       0.301900       1.563000       2435.400000    4.526200       0.373700       6.540000       0.000000       3.000000       0.787600       0.212400       29.416000      70.699000      41.283000      6.461900       0.400400       0.000000      
2910.000000    95.300000      2.247800       0.362600       1.301000       1782.200000    1.567500       0.400300       4.010000       0.000000       3.000000       0.876500       0.264100       29.426000      70.723000      41.297000      2.100400       0.443300       0.000000      
2911.000000    92.360000      2.220500       0.352400       2.040000       1994.500000    1.869200       0.412100       6.210000       0.000000       3.000000       0.862200       0.257900       29.437000      70.747000      41.311000      2.519500       0.445300       0.000000      
2912.000000    97.140000      2.201000       0.343700       2.012000       1925.500000    2.149900       0.418400       4.340000       0.000000       3.000000       0.812000       0.266200       29.447000      70.772000      41.325000      2.914000       0.428600       0.000000      
2913.000000    90.560000      2.297700       0.306400       3.026000       2199.500000    3.383300       0.380700       7.160000       0.000000       3.000000       0.845300       0.218700       29.457000      70.796000      41.339000      4.705500       0.411800       0.000000      
