~Version Information
VERS.                          2.0 : CWLS LAS LOG DATA FORMAT VERSION 2.0
WRAP.                          NO  : One line per depth step
~Well Information
#MNEM.MEAS UNIT            DATA             DESCRIPTION
STRT .M          1000.0000              : First depth
STOP .M          4200.0000              : Last depth
STEP .M             1.0000              : Step
NULL .      -999.25                      : Null value
WELL .      AGB-02                      : Well name
~Curve Information
#MNEM .UNIT                    DESCRIPTION
DEPT      .M                   : DEPT
GR        .API                 : GR
RHOB      .G/C3                : RHOB
NPHI      .V/V                 : NPHI
RT        .OHMM                : RT
VP        .M/S                 : VP
E_STAT    .GPA                 : E_STAT
NU_STAT   .-                   : NU_STAT
UCS       .MPA                 : UCS
IS_CORE   .-                   : IS_CORE
FACIES    .-                   : FACIES
VSH_TRUE  .V/V                 : VSH_TRUE
PHI_TRUE  .V/V                 : PHI_TRUE
PP_MPA    .MPA                 : PP_MPA
SV_MPA    .MPA                 : SV_MPA
SIG_EFF_MPA.MPA                 : SIG_EFF_MPA
E_DYN     .GPA                 : E_DYN
NU_DYN    .-                   : NU_DYN
IS_HC     .-                   : IS_HC
~Parameter Information
# Generated by GeoMech-LogML synthetic generator (Agbada-like physics).
~A
# ...
2044.000000    28.670000      2.267300       0.217200       0.882000       3649.900000    10.371100      0.179200       12.500000      0.000000       0.000000       0.066700       0.222100       20.270000      50.199000      29.929000      27.029100      0.204500       0.000000      
2045.000000    40.290000      2.266400       0.241600       0.650000       3456.300000    9.326700       0.251500       8.770000       0.000000       1.000000       0.216500       0.236300       20.280000      50.223000      29.944000      20.731900      0.288700       0.000000      
2046.000000    44.360000      2.281200       0.247600       0.625000       3156.600000    8.601300       0.231700       9.600000       1.000000       1.000000       0.286300       0.236400       20.290000      50.248000      29.958000      17.953000      0.275900       0.000000      
2047.000000    32.420000      2.284600       0.229100       0.684000       3639.800000    10.224400      0.222800       9.560000       0.000000       1.000000       0.101600       0.228600       20.300000      50.273000      29.973000      25.706900      0.239400       0.000000      
2048.000000    46.720000      2.294000       0.213100       1.102000       3456.200000    9.695400       0.225600       11.260000      0.000000       1.000000       0.231700       0.212200       20.310000      50.297000      29.987000      22.437200      0.259100       0.000000      
2049.000000    42.700000      2.302700       0.231300       1.003000       3432.300000    9.573200       0.226000       9.730000       0.000000       1.000000       0.228700       0.221200       20.320000      50.322000      30.002000      21.831700      0.267400       0.000000      
2050.000000    43.750000      2.262100       0.251500       0.451000       3189.500000    8.818900       0.222400       6.440000       0.000000       1.000000       0.245100       0.241000       20.329000      50.346000      30.017000      18.713000      0.262500       0.000000      
2051.000000    49.550000      2.266400       0.246900       1.274000       3332.600000    9.138500       0.262500       10.030000      0.000000       1.000000       0.248100       0.229900       20.339000      50.371000      30.031000      19.930000      0.274800       0.000000      
2052.000000    47.990000      2.288900       0.247400       0.876000       3488.800000    9.525000       0.251500       9.180000       0.000000       1.000000       0.216800       0.229400       20.349000      50.395000      30.046000      21.596800      0.283700       0.000000      
2053.000000    47.190000      2.256800       0.245300       0.650000       3170.300000    8.266400       0.255400       7.020000       0.000000       1.000000       0.293900       0.246800       20.359000      50.420000      30.061000      16.833200      0.300300       0.000000      
2054.000000    44.940000      2.267900       0.227400       0.656000       3374.100000    9.313000       0.229700       7.210000       0.000000       1.000000       0.226700       0.230700       20.369000      50.444000      30.075000      20.648200      0.270300       0.000000      
2055.000000    43.570000      2.255200       0.256700       1.041000       3538.000000    9.554400       0.263200       9.090000       0.000000       1.000000       0.191800       0.235200       20.379000      50.469000      30.090000      21.731800      0.286500       0.000000      
2056.000000    46.350000      2.265600       0.259600       0.831000       3217.100000    8.810100       0.240000       8.550000       0.000000       1.000000       0.231200       0.248600       20.389000      50.494000      30.105000      18.675900      0.272200       0.000000      
2057.000000    50.310000      2.285200       0.251300       0.567000       3098.500000    8.398700       0.256900       7.480000       0.000000       1.000000       0.319900       0.231500       20.399000      50.518000      30.119000      17.259700      0.277600       0.000000      
2058.000000    49.640000      2.258100       0.248200       0.997000       3203.200000    8.825800       0.233400       7.570000       0.000000       1.000000       0.256700       0.236600       20.409000      50.543000      30.134000      18.733700      0.265200       0.000000      
2059.000000    52.060000      2.235700       0.271800       0.516000       3028.500000    7.957400       0.256900       6.620000       0.000000       1.000000       0.299300       0.251300       20.419000      50.567000      30.149000      15.881600      0.284100       0.000000      
2060.000000    40.860000      2.310100       0.243400       0.812000       3420.500000    9.685300       0.232500       10.780000      0.000000       1.000000       0.221400       0.217500       20.429000      50.592000      30.163000      22.375700      0.253500       0.000000      
2061.000000    43.090000      2.291000       0.243700       1.151000       3330.700000    8.959700       0.274300       9.290000       0.000000       1.000000       0.277000       0.230700       20.439000      50.616000      30.178000      19.235100      0.293200       0.000000      
2062.000000    52.150000      2.233500       0.273700       0.787000       2975.600000    7.870000       0.239600       7.290000       0.000000       1.000000       0.312800       0.247700       20.448000      50.641000      30.192000      15.625300      0.275700       0.000000      
2063.000000    42.710000      2.295900       0.233800       1.553000       3476.300000    9.606500       0.261500       9.350000       0.000000       1.000000       0.213300       0.226400       20.458000      50.665000      30.207000      21.995100      0.274200       0.000000      
2064.000000    38.220000      2.294300       0.226700       0.656000       3585.500000    10.198100      0.239300       9.380000       0.000000       0.000000       0.116000       0.224200       20.468000      50.690000      30.222000      25.505300      0.228500       0.000000      
2065.000000    30.430000      2.289500       0.187700       0.965000       3770.400000    10.574300      0.155300       11.970000      0.000000       0.000000       0.020000       0.214200       20.478000      50.715000      30.236000      29.906200      0.182200       0.000000      
2066.000000    25.580000      2.278300       0.208900       0.649000       3597.300000    10.351700      0.161600       11.450000      0.000000       0.000000       0.073300       0.220400       20.488000      50.739000      30.251000      26.830000      0.190800       0.000000      
2067.000000    30.110000      2.296800       0.192500       0.799000       3876.600000    10.587100      0.185200       11.900000      0.000000       0.000000       0.044700       0.208700       20.498000      50.764000      30.266000      30.379500      0.216600       0.000000      
2068.000000    28.900000      2.254500       0.215900       0.567000       3649.900000    10.291000      0.189000       10.180000      0.000000       0.000000       0.075900       0.227200       20.508000      50.788000      30.280000      26.304600      0.220000       0.000000      
2069.000000    28.410000      2.315300       0.205400       1.258000       3833.600000    10.552800      0.189900       10.190000      0.000000       0.000000       0.040800       0.220500       20.518000      50.813000      30.295000      29.566200      0.225300       0.000000      
2070.000000    25.970000      2.316400       0.194200       1.009000       3865.200000    10.599900      0.179800       13.060000      0.000000       0.000000       0.020000       0.208300       20.528000      50.837000      30.310000      31.330100      0.195200       0.000000      
2071.000000    36.720000      2.329400       0.211400       1.097000       3807.500000    10.544700      0.193700       12.960000      1.000000       0.000000       0.075600       0.208800       20.538000      50.862000      30.324000      29.476200      0.222300       0.000000      
2072.000000    38.410000      2.321000       0.206000       0.677000       3639.000000    10.110000      0.237500       9.570000       0.000000       0.000000       0.138200       0.229400       20.548000      50.886000      30.339000      24.952400      0.263300       0.000000      
