~Version Information
VERS.                          2.0 : CWLS LAS LOG DATA FORMAT VERSION 2.0
WRAP.                          NO  : One line per depth step
~Well Information
#MNEM.MEAS UNIT            DATA             DESCRIPTION
STRT .M          1000.0000              : First depth
STOP .M          4200.0000              : Last depth
STEP .M             1.0000              : Step
NULL .      -999.25                      : Null value
WELL .      AGB-01                      : Well name
~Curve Information
#MNEM .UNIT                    DESCRIPTION
DEPT      .M                   : DEPT
GR        .API                 : GR
RHOB      .G/C3                : RHOB
NPHI      .V/V                 : NPHI
RT        .OHMM                : RT
VP        .M/S                 : VP
E_STAT    .GPA                 : E_STAT
NU_STAT   .-                   : NU_STAT
UCS       .MPA                 : UCS
IS_CORE   .-                   : IS_CORE
FACIES    .-                   : FACIES
VSH_TRUE  .V/V                 : VSH_TRUE
PHI_TRUE  .V/V                 : PHI_TRUE
PP_MPA    .MPA                 : PP_MPA
SV_MPA    .MPA                 : SV_MPA
SIG_EFF_MPA.MPA                 : SIG_EFF_MPA
E_DYN     .GPA                 : E_DYN
NU_DYN    .-                   : NU_DYN
IS_HC     .-                   : IS_HC
~Parameter Information
# Generated by GeoMech-LogML synthetic generator (Agbada-like physics).
~A
# ...
3726.000000    32.310000      2.314300       0.197200       1.177000       3760.600000    12.528600      0.219200       11.450000      0.000000       0.000000       0.136700       0.206100       53.049000      84.682000      31.633000      27.557300      0.244300       0.000000      
3727.000000    20.590000      2.353100       0.181600       0.636000       3973.800000    13.147100      0.160800       12.410000      0.000000       0.000000       0.024200       0.194700       53.090000      84.705000      31.615000      33.682000      0.194100       0.000000      
3728.000000    22.940000      2.342000       0.167200       1.802000       4131.000000    13.178500      0.216400       12.300000      0.000000       0.000000       0.020000       0.188200       53.130000      84.728000      31.598000      35.214300      0.215900       0.000000      
3729.000000    30.780000      2.324900       0.169200       1.362000       4001.500000    13.097300      0.180200       13.250000      0.000000       0.000000       0.065900       0.188700       53.171000      84.750000      31.580000      32.648900      0.219100       0.000000      
3730.000000    28.430000      2.322600       0.192400       1.143000       3881.500000    12.896000      0.201200       10.260000      0.000000       0.000000       0.064000       0.209900       53.212000      84.773000      31.562000      30.245300      0.228700       0.000000      
3731.000000    29.970000      2.356300       0.176300       1.267000       3864.800000    13.006900      0.195900       13.420000      0.000000       0.000000       0.075700       0.195400       53.252000      84.796000      31.544000      31.396700      0.206900       0.000000      
3732.000000    35.080000      2.298700       0.205900       1.787000       3906.100000    12.814600      0.223200       11.510000      0.000000       0.000000       0.093100       0.204700       53.293000      84.819000      31.525000      29.554500      0.243900       0.000000      
3733.000000    28.110000      2.338300       0.184500       1.175000       3888.300000    12.995000      0.192700       13.940000      0.000000       0.000000       0.086800       0.191400       53.334000      84.841000      31.507000      31.277700      0.213000       0.000000      
3734.000000    25.900000      2.336500       0.179700       0.976000       4124.000000    13.162000      0.198100       15.450000      1.000000       0.000000       0.053900       0.183600       53.375000      84.864000      31.489000      34.339700      0.228900       0.000000      
3735.000000    35.630000      2.317300       0.207600       0.773000       3605.000000    12.082600      0.213200       9.600000       0.000000       0.000000       0.175600       0.211400       53.416000      84.887000      31.471000      25.231400      0.247100       0.000000      
3736.000000    30.440000      2.305100       0.209200       1.167000       3695.000000    12.703900      0.178700       13.240000      1.000000       0.000000       0.096400       0.199400       53.457000      84.910000      31.453000      28.750300      0.187400       0.000000      
3737.000000    30.530000      2.320900       0.184100       0.982000       3980.100000    12.948100      0.217100       13.360000      0.000000       0.000000       0.096500       0.195900       53.498000      84.932000      31.435000      30.828200      0.246600       0.000000      
3738.000000    33.460000      2.316500       0.214100       1.797000       3775.600000    12.572700      0.219200       10.550000      0.000000       0.000000       0.125900       0.207000       53.539000      84.955000      31.416000      27.887900      0.242600       0.000000      
3739.000000    32.600000      2.361700       0.181300       1.956000       4053.300000    13.153400      0.202300       14.740000      0.000000       0.000000       0.047800       0.184800       53.580000      84.978000      31.398000      34.370000      0.212100       0.000000      
3740.000000    23.060000      2.360700       0.168300       1.024000       4083.800000    13.162700      0.168100       14.760000      0.000000       0.000000       0.020000       0.185300       53.621000      85.000000      31.380000      35.391700      0.200900       0.000000      
3741.000000    23.510000      2.327800       0.198600       2.187000       4082.700000    13.146200      0.189400       14.970000      0.000000       0.000000       0.026900       0.190600       53.662000      85.023000      31.361000      34.238100      0.214900       0.000000      
3742.000000    37.370000      2.330800       0.191900       1.415000       3719.800000    12.564200      0.213700       8.470000       0.000000       0.000000       0.119000       0.208400       53.703000      85.046000      31.343000      27.878900      0.228700       0.000000      
3743.000000    32.770000      2.350200       0.179500       1.401000       4023.200000    13.089600      0.200100       15.670000      0.000000       0.000000       0.076100       0.187100       53.744000      85.069000      31.325000      32.886300      0.228600       0.000000      
3744.000000    27.600000      2.351500       0.190200       0.913000       4027.100000    13.146300      0.174000       17.650000      0.000000       0.000000       0.049800       0.177000       53.785000      85.091000      31.306000      34.599400      0.193400       0.000000      
3745.000000    30.670000      2.310900       0.180100       0.831000       3995.000000    12.964100      0.202400       12.390000      0.000000       0.000000       0.071700       0.200400       53.826000      85.114000      31.288000      31.183200      0.242000       0.000000      
3746.000000    26.650000      2.351800       0.169700       1.892000       4045.000000    13.134400      0.191000       20.180000      0.000000       0.000000       0.045600       0.183900       53.868000      85.137000      31.269000      34.291800      0.207700       0.000000      
3747.000000    33.660000      2.275100       0.206800       0.913000       3682.500000    12.364600      0.204400       10.170000      0.000000       0.000000       0.129400       0.207600       53.909000      85.160000      31.251000      26.764800      0.226400       0.000000      
3748.000000    25.020000      2.364500       0.194900       1.177000       4104.600000    13.139800      0.177700       16.380000      0.000000       0.000000       0.020000       0.183400       53.950000      85.182000      31.232000      35.723200      0.202900       0.000000      
3749.000000    22.400000      2.356900       0.178400       0.995000       4117.700000    13.137000      0.171300       16.050000      0.000000       0.000000       0.020000       0.183600       53.991000      85.205000      31.214000      35.681600      0.206200       0.000000      
3750.000000    22.820000      2.344300       0.168100       1.951000       4074.900000    13.131100      0.159100       15.960000      0.000000       0.000000       0.020000       0.188700       54.033000      85.228000      31.195000      34.783700      0.205600       0.000000      
3751.000000    24.790000      2.291800       0.188200       1.317000       3712.600000    12.538900      0.189500       12.020000      0.000000       0.000000       0.099200       0.209500       54.074000      85.250000      31.176000      27.852700      0.215400       0.000000      
3752.000000    35.740000      2.326400       0.182200       0.901000       3835.200000    12.851900      0.189700       10.990000      1.000000       0.000000       0.072200       0.203600       54.116000      85.273000      31.158000      30.230900      0.214000       0.000000      
3753.000000    28.060000      2.330600       0.198700       0.881000       3861.600000    12.766000      0.222400       11.870000      0.000000       0.000000       0.099300       0.204400       54.157000      85.296000      31.139000      29.508100      0.239600       0.000000      
3754.000000    32.070000      2.336100       0.184200       1.047000       3917.000000    12.952200      0.188600       14.840000      0.000000       0.000000       0.084000       0.192700       54.199000      85.319000      31.120000      31.333600      0.221300       0.000000      
