~Version Information
VERS.                          2.0 : CWLS LAS LOG DATA FORMAT VERSION 2.0
WRAP.                          NO  : One line per depth step
~Well Information
#MNEM.MEAS UNIT            DATA             DESCRIPTION
STRT .M          1000.0000              : First depth
STOP .M          4200.0000              : Last depth
STEP .M             1.0000              : Step
NULL .      -999.25                      : Null value
WELL .      AGB-01                      : Well name
~Curve Information
#MNEM .UNIT                    DESCRIPTION
DEPT      .M                   : DEPT
GR        .API                 : GR
RHOB      .G/C3                : RHOB
NPHI      .V/V                 : NPHI
RT        .OHMM                : RT
VP        .M/S                 : VP
E_STAT    .GPA                 : E_STAT
NU_STAT   .-                   : NU_STAT
UCS       .MPA                 : UCS
IS_CORE   .-                   : IS_CORE
FACIES    .-                   : FACIES
VSH_TRUE  .V/V                 : VSH_TRUE
PHI_TRUE  .V/V                 : PHI_TRUE
PP_MPA    .MPA                 : PP_MPA
SV_MPA    .MPA                 : SV_MPA
SIG_EFF_MPA.MPA                 : SIG_EFF_MPA
E_DYN     .GPA                 : E_DYN
NU_DYN    .-                   : NU_DYN
IS_HC     .-                   : IS_HC
~Parameter Information
# Generated by GeoMech-LogML synthetic generator (Agbada-like physics).
~A
# ...
2479.000000    95.140000      2.154200       0.385700       1.242000       1598.000000    1.354700       0.395000       3.340000       0.000000       3.000000       0.823600       0.305700       25.629000      56.341000      30.712000      1.867400       0.432800       0.000000      
2480.000000    93.080000      2.151400       0.385600       1.485000       1570.300000    1.350400       0.388300       2.610000       0.000000       3.000000       0.826600       0.318300       25.640000      56.364000      30.724000      1.861400       0.430100       0.000000      
2481.000000    86.910000      2.107700       0.407800       0.826000       1585.300000    1.325000       0.396100       3.470000       0.000000       3.000000       0.810800       0.331700       25.650000      56.387000      30.737000      1.825500       0.431600       0.000000      
2482.000000    94.750000      2.166300       0.415400       1.129000       1689.800000    1.369300       0.420000       3.960000       0.000000       3.000000       0.860000       0.306100       25.660000      56.409000      30.749000      1.888200       0.440800       0.000000      
2483.000000    91.950000      2.197000       0.395200       1.487000       1512.700000    1.372400       0.389500       2.730000       0.000000       3.000000       0.903000       0.312600       25.671000      56.432000      30.762000      1.892600       0.423800       0.000000      
2484.000000    93.920000      2.195200       0.389300       1.572000       1636.600000    1.382900       0.399900       3.470000       0.000000       3.000000       0.849700       0.298000       25.681000      56.455000      30.774000      1.907600       0.436300       0.000000      
2485.000000    92.600000      2.172700       0.405900       1.406000       1450.000000    1.350100       0.389900       3.390000       0.000000       3.000000       0.888800       0.315400       25.691000      56.478000      30.786000      1.861300       0.416000       0.000000      
2486.000000    98.030000      2.212800       0.383400       2.182000       1567.300000    1.387300       0.399300       4.300000       0.000000       3.000000       0.904900       0.281300       25.702000      56.500000      30.799000      1.914100       0.429800       0.000000      
2487.000000    93.120000      2.197000       0.347100       1.400000       1638.100000    1.383800       0.398800       4.100000       0.000000       3.000000       0.837200       0.285800       25.712000      56.523000      30.811000      1.909300       0.436500       0.000000      
2488.000000    105.390000     2.144300       0.413800       1.035000       1461.600000    1.334000       0.400500       3.150000       0.000000       3.000000       0.892600       0.331100       25.722000      56.546000      30.824000      1.838900       0.417500       0.000000      
2489.000000    95.850000      2.152700       0.384200       0.894000       1635.900000    1.356300       0.411500       3.640000       0.000000       3.000000       0.844100       0.308500       25.733000      56.569000      30.836000      1.870600       0.436300       0.000000      
2490.000000    94.090000      2.152000       0.404700       1.001000       1450.000000    1.337000       0.400000       3.320000       0.000000       3.000000       0.877100       0.309800       25.743000      56.591000      30.848000      1.843500       0.416000       0.000000      
2491.000000    97.930000      2.132100       0.417700       2.049000       1450.000000    1.324800       0.379000       2.820000       0.000000       3.000000       0.912400       0.324100       25.753000      56.614000      30.861000      1.826500       0.416000       0.000000      
2492.000000    94.100000      2.136900       0.404900       1.604000       1615.800000    1.344400       0.415700       3.180000       0.000000       3.000000       0.848900       0.317900       25.764000      56.637000      30.873000      1.854500       0.434500       0.000000      
2493.000000    89.140000      2.193500       0.372400       1.374000       1619.300000    1.379100       0.395900       3.570000       0.000000       3.000000       0.836100       0.295500       25.774000      56.659000      30.886000      1.904100       0.434800       0.000000      
2494.000000    89.120000      2.192700       0.371800       1.613000       1636.100000    1.379800       0.400400       3.990000       0.000000       3.000000       0.850000       0.294700       25.784000      56.682000      30.898000      1.905400       0.436300       0.000000      
2495.000000    87.680000      2.161900       0.396800       0.989000       1684.800000    1.364500       0.401500       3.300000       0.000000       3.000000       0.785100       0.308300       25.795000      56.705000      30.910000      1.884000       0.440400       0.000000      
2496.000000    95.720000      2.156400       0.404300       1.782000       1483.200000    1.342400       0.388400       3.040000       0.000000       3.000000       0.889900       0.314200       25.805000      56.728000      30.923000      1.852900       0.420300       0.000000      
2497.000000    102.360000     2.177400       0.395000       1.558000       1450.000000    1.350900       0.401200       3.290000       0.000000       3.000000       0.944600       0.315000       25.815000      56.750000      30.935000      1.865300       0.416000       0.000000      
2498.000000    95.050000      2.165200       0.381300       0.963000       1556.700000    1.355100       0.386400       3.300000       0.000000       3.000000       0.853700       0.311600       25.826000      56.773000      30.947000      1.871500       0.428700       0.000000      
2499.000000    100.110000     2.166000       0.392000       1.317000       1450.000000    1.343600       0.379000       3.240000       0.000000       3.000000       0.899200       0.310400       25.836000      56.796000      30.960000      1.855600       0.416000       0.000000      
2500.000000    101.380000     2.198500       0.387600       1.994000       1634.100000    1.381800       0.419700       3.670000       0.000000       3.000000       0.878400       0.294500       25.846000      56.819000      30.972000      1.910200       0.436100       0.000000      
2501.000000    84.190000      2.165800       0.384100       1.264000       1629.600000    1.361200       0.412600       3.410000       0.000000       3.000000       0.790700       0.298400       25.857000      56.841000      30.985000      1.881300       0.435700       0.000000      
2502.000000    88.850000      2.194800       0.376200       0.797000       1673.000000    1.575300       0.376900       4.110000       0.000000       3.000000       0.771300       0.296000       25.867000      56.864000      30.997000      2.187300       0.428800       0.000000      
2503.000000    96.160000      2.234900       0.386800       2.261000       1665.500000    1.405800       0.409800       4.840000       0.000000       3.000000       0.903300       0.280200       25.877000      56.887000      31.009000      1.945400       0.438800       0.000000      
2504.000000    102.120000     2.172500       0.386200       1.811000       1450.000000    1.346200       0.377400       3.580000       0.000000       3.000000       0.926000       0.304300       25.888000      56.909000      31.022000      1.861100       0.416000       0.000000      
2505.000000    95.860000      2.126300       0.385200       0.830000       1454.700000    1.318700       0.397100       3.550000       0.000000       3.000000       0.855800       0.311900       25.898000      56.932000      31.034000      1.822400       0.416600       0.000000      
2506.000000    88.540000      2.148900       0.390400       1.807000       1549.000000    1.342400       0.380600       3.480000       1.000000       3.000000       0.870900       0.311200       25.908000      56.955000      31.047000      1.856400       0.427900       0.000000      
2507.000000    100.730000     2.171000       0.368800       1.895000       1590.100000    1.359300       0.403200       3.850000       0.000000       3.000000       0.892300       0.300000       25.919000      56.978000      31.059000      1.880900       0.432100       0.000000      
