~Version Information
VERS.                          2.0 : CWLS LAS LOG DATA FORMAT VERSION 2.0
WRAP.                          NO  : One line per depth step
~Well Information
#MNEM.MEAS UNIT            DATA             DESCRIPTION
STRT .M          1000.0000              : First depth
STOP .M          4200.0000              : Last depth
STEP .M             1.0000              : Step
NULL .      -999.25                      : Null value
WELL .      AGB-03                      : Well name
~Curve Information
#MNEM .UNIT                    DESCRIPTION
DEPT      .M                   : DEPT
GR        .API                 : GR
RHOB      .G/C3                : RHOB
NPHI      .V/V                 : NPHI
RT        .OHMM                : RT
VP        .M/S                 : VP
E_STAT    .GPA                 : E_STAT
NU_STAT   .-                   : NU_STAT
UCS       .MPA                 : UCS
IS_CORE   .-                   : IS_CORE
FACIES    .-                   : FACIES
VSH_TRUE  .V/V                 : VSH_TRUE
PHI_TRUE  .V/V                 : PHI_TRUE
PP_MPA    .MPA                 : PP_MPA
SV_MPA    .MPA                 : SV_MPA
SIG_EFF_MPA.MPA                 : SIG_EFF_MPA
E_DYN     .GPA                 : E_DYN
NU_DYN    .-                   : NU_DYN
IS_HC     .-                   : IS_HC
~Parameter Information
# Generated by GeoMech-LogML synthetic generator (Agbada-like physics).
~A
# ...
3726.000000    69.950000      2.277100       0.277900       1.850000       2982.500000    8.549100       0.303700       6.660000       0.000000       2.000000       0.468000       0.226200       54.792000      90.555000      35.763000      13.704500      0.329300       0.000000      
3727.000000    69.840000      2.305100       0.291400       1.228000       2714.900000    7.295800       0.308500       6.310000       0.000000       2.000000       0.540900       0.230000       54.842000      90.579000      35.738000      11.226100      0.335700       0.000000      
3728.000000    67.550000      2.307100       0.249800       2.026000       2928.100000    7.798800       0.315300       8.270000       0.000000       2.000000       0.540000       0.220500       54.891000      90.603000      35.712000      12.189200      0.352500       0.000000      
3729.000000    64.550000      2.287100       0.292200       0.802000       2645.400000    7.618700       0.274900       7.510000       0.000000       2.000000       0.499600       0.233400       54.941000      90.628000      35.687000      11.839000      0.301500       0.000000      
3730.000000    69.760000      2.265000       0.267600       1.200000       2616.000000    6.563400       0.325600       5.640000       0.000000       2.000000       0.539300       0.246300       54.990000      90.652000      35.662000      9.882600       0.344600       0.000000      
3731.000000    72.580000      2.278700       0.278700       1.622000       2763.000000    7.828400       0.283200       7.770000       0.000000       2.000000       0.488900       0.233900       55.040000      90.676000      35.636000      12.243900      0.317800       0.000000      
3732.000000    65.380000      2.266100       0.293800       1.443000       2836.500000    7.202100       0.329500       9.050000       0.000000       2.000000       0.534300       0.234400       55.090000      90.701000      35.611000      11.046300      0.356200       0.000000      
3733.000000    66.130000      2.299900       0.277200       1.178000       2701.800000    7.515200       0.292300       6.020000       0.000000       2.000000       0.501100       0.238300       55.139000      90.725000      35.586000      11.636400      0.322400       0.000000      
3734.000000    76.100000      2.247200       0.305500       1.292000       2311.200000    4.987200       0.334600       4.170000       1.000000       2.000000       0.592100       0.264600       55.189000      90.749000      35.560000      7.202500       0.358300       0.000000      
3735.000000    66.890000      2.282200       0.281000       2.164000       2668.000000    6.512400       0.326300       7.170000       0.000000       2.000000       0.565300       0.239600       55.239000      90.774000      35.535000      9.788900       0.357400       0.000000      
3736.000000    70.530000      2.288800       0.276300       1.081000       2619.700000    6.517200       0.315900       7.370000       0.000000       2.000000       0.597600       0.226700       55.289000      90.798000      35.509000      9.796800       0.349800       0.000000      
3737.000000    64.780000      2.283600       0.271600       0.971000       2820.900000    7.497600       0.318100       6.980000       0.000000       2.000000       0.506000       0.238100       55.339000      90.822000      35.483000      11.600300      0.344300       0.000000      
3738.000000    64.790000      2.294400       0.270700       1.540000       2906.600000    7.793800       0.326400       7.330000       0.000000       2.000000       0.500700       0.234300       55.389000      90.846000      35.458000      12.170900      0.348200       0.000000      
3739.000000    62.780000      2.298700       0.231200       0.767000       3156.700000    9.691700       0.294000       9.870000       0.000000       2.000000       0.438100       0.210100       55.439000      90.871000      35.432000      16.206300      0.316200       0.000000      
3740.000000    71.680000      2.276200       0.287700       2.745000       2604.300000    6.767600       0.305700       6.550000       0.000000       2.000000       0.580400       0.225100       55.489000      90.895000      35.406000      10.243800      0.334600       0.000000      
3741.000000    68.050000      2.298400       0.275500       1.188000       2921.000000    7.964500       0.319000       6.960000       0.000000       2.000000       0.520500       0.222600       55.539000      90.919000      35.380000      12.504100      0.344600       0.000000      
3742.000000    67.710000      2.232000       0.295800       1.121000       2385.800000    5.138000       0.330900       6.090000       0.000000       2.000000       0.587000       0.262300       55.589000      90.944000      35.355000      7.445400       0.363100       0.000000      
3743.000000    68.620000      2.228800       0.289400       0.796000       2620.300000    6.181000       0.328700       6.630000       0.000000       2.000000       0.549500       0.250500       55.639000      90.968000      35.329000      9.202600       0.357800       0.000000      
3744.000000    70.320000      2.319000       0.256600       1.263000       2887.300000    8.184100       0.313500       8.350000       0.000000       2.000000       0.504600       0.223500       55.689000      90.992000      35.303000      12.940800      0.332300       0.000000      
3745.000000    72.850000      2.300600       0.281400       1.159000       2664.700000    7.009200       0.304000       8.060000       0.000000       2.000000       0.572500       0.224200       55.740000      91.017000      35.277000      10.682200      0.338400       0.000000      
3746.000000    70.670000      2.262500       0.305700       0.908000       2337.700000    5.346400       0.316000       6.390000       0.000000       2.000000       0.589900       0.256200       55.790000      91.041000      35.251000      7.787000       0.347500       0.000000      
3747.000000    70.500000      2.276900       0.302700       1.151000       2757.700000    6.663600       0.334200       5.880000       0.000000       2.000000       0.546900       0.243400       55.840000      91.065000      35.225000      10.053900      0.364900       0.000000      
3748.000000    70.220000      2.309300       0.278300       0.873000       2763.300000    7.312200       0.325100       6.420000       0.000000       2.000000       0.536200       0.232200       55.891000      91.090000      35.199000      11.244200      0.344600       0.000000      
3749.000000    67.720000      2.296300       0.260300       1.537000       2905.100000    7.993700       0.314700       6.740000       0.000000       2.000000       0.505600       0.226900       55.941000      91.114000      35.172000      12.558100      0.340700       0.000000      
3750.000000    69.860000      2.275300       0.306500       0.765000       2558.100000    5.824900       0.332600       5.870000       0.000000       2.000000       0.594400       0.245000       55.992000      91.138000      35.146000      8.588300       0.366200       0.000000      
3751.000000    71.190000      2.267200       0.308700       1.260000       2544.700000    6.286800       0.309900       6.050000       0.000000       2.000000       0.556800       0.245900       56.042000      91.162000      35.120000      9.384800       0.344000       0.000000      
3752.000000    62.650000      2.268700       0.290000       0.989000       2804.600000    7.252800       0.324100       6.870000       0.000000       2.000000       0.521200       0.237400       56.093000      91.187000      35.094000      11.131700      0.349700       0.000000      
3753.000000    79.840000      2.276600       0.276800       1.576000       2600.200000    6.171500       0.322500       7.260000       0.000000       2.000000       0.620300       0.226100       56.144000      91.211000      35.067000      9.183500       0.359400       0.000000      
3754.000000    63.420000      2.306700       0.274300       1.229000       3095.900000    8.190600       0.332500       7.690000       0.000000       2.000000       0.517400       0.220800       56.194000      91.235000      35.041000      12.949700      0.363200       0.000000      
