~Version Information
VERS.                          2.0 : CWLS LAS LOG DATA FORMAT VERSION 2.0
WRAP.                          NO  : One line per depth step
~Well Information
#MNEM.MEAS UNIT            DATA             DESCRIPTION
STRT .M          1000.0000              : First depth
STOP .M          4200.0000              : Last depth
STEP .M             1.0000              : Step
NULL .      -999.25                      : Null value
WELL .      AGB-01                      : Well name
~Curve Information
#MNEM .UNIT                    DESCRIPTION
DEPT      .M                   : DEPT
GR        .API                 : GR
RHOB      .G/C3                : RHOB
NPHI      .V/V                 : NPHI
RT        .OHMM                : RT
VP        .M/S                 : VP
E_STAT    .GPA                 : E_STAT
NU_STAT   .-                   : NU_STAT
UCS       .MPA                 : UCS
IS_CORE   .-                   : IS_CORE
FACIES    .-                   : FACIES
VSH_TRUE  .V/V                 : VSH_TRUE
PHI_TRUE  .V/V                 : PHI_TRUE
PP_MPA    .MPA                 : PP_MPA
SV_MPA    .MPA                 : SV_MPA
SIG_EFF_MPA.MPA                 : SIG_EFF_MPA
E_DYN     .GPA                 : E_DYN
NU_DYN    .-                   : NU_DYN
IS_HC     .-                   : IS_HC
~Parameter Information
# Generated by GeoMech-LogML synthetic generator (Agbada-like physics).
~A
# ...
4161.000000    93.950000      2.146000       0.428200       2.149000       1450.000000    1.323500       0.372200       2.290000       0.000000       3.000000       0.876000       0.333400       73.843000      94.569000      20.725000      1.838400       0.416000       0.000000      
4162.000000    94.720000      2.122500       0.437000       2.253000       1450.000000    1.309300       0.402300       2.710000       0.000000       3.000000       0.897300       0.334000       73.899000      94.591000      20.693000      1.818300       0.416000       0.000000      
4163.000000    98.530000      2.084900       0.417000       1.241000       1450.000000    1.286600       0.382000       2.280000       0.000000       3.000000       0.883700       0.340700       73.954000      94.614000      20.660000      1.786100       0.416000       0.000000      
4164.000000    90.210000      2.038100       0.451200       0.737000       1450.000000    1.258400       0.389200       2.220000       0.000000       3.000000       0.820700       0.371600       74.009000      94.637000      20.628000      1.745900       0.416000       0.000000      
4165.000000    90.290000      2.104300       0.449300       1.279000       1450.000000    1.298100       0.390400       1.960000       0.000000       3.000000       0.856600       0.354300       74.065000      94.660000      20.595000      1.802700       0.416000       0.000000      
4166.000000    97.970000      2.140600       0.374700       0.786000       1450.000000    1.319800       0.384700       2.840000       0.000000       3.000000       0.827400       0.326400       74.120000      94.682000      20.562000      1.833800       0.416000       0.000000      
4167.000000    94.150000      2.085200       0.420300       1.490000       1450.000000    1.286400       0.403600       1.970000       0.000000       3.000000       0.857800       0.363000       74.175000      94.705000      20.530000      1.786300       0.416000       0.000000      
4168.000000    103.840000     2.078300       0.426900       1.694000       1450.000000    1.282200       0.404200       2.380000       0.000000       3.000000       0.892300       0.361300       74.231000      94.728000      20.497000      1.780400       0.416000       0.000000      
4169.000000    91.530000      2.124300       0.399800       1.115000       1450.000000    1.309800       0.377500       2.350000       0.000000       3.000000       0.849800       0.335600       74.286000      94.751000      20.464000      1.819800       0.416000       0.000000      
4170.000000    93.800000      2.090400       0.437800       1.429000       1450.000000    1.289300       0.386800       2.090000       0.000000       3.000000       0.870700       0.354200       74.342000      94.773000      20.431000      1.790700       0.416000       0.000000      
4171.000000    94.680000      2.085700       0.416300       1.749000       1450.000000    1.286500       0.381600       2.070000       0.000000       3.000000       0.869600       0.347500       74.397000      94.796000      20.399000      1.786800       0.416000       0.000000      
4172.000000    95.700000      2.069100       0.449500       0.939000       1450.000000    1.276400       0.399100       1.810000       0.000000       3.000000       0.883600       0.360500       74.453000      94.819000      20.366000      1.772600       0.416000       0.000000      
4173.000000    92.670000      2.061200       0.437900       1.235000       1450.000000    1.271600       0.380200       2.350000       0.000000       3.000000       0.865700       0.368900       74.509000      94.841000      20.333000      1.765800       0.416000       0.000000      
4174.000000    98.290000      2.101500       0.448800       1.106000       1450.000000    1.295700       0.384100       1.950000       0.000000       3.000000       0.868600       0.368000       74.564000      94.864000      20.300000      1.800300       0.416000       0.000000      
4175.000000    95.590000      2.092100       0.424100       1.152000       1450.000000    1.290100       0.384400       1.960000       0.000000       3.000000       0.837000       0.358800       74.620000      94.887000      20.267000      1.792300       0.416000       0.000000      
4176.000000    92.950000      2.055500       0.445400       1.023000       1450.000000    1.268000       0.381700       1.740000       0.000000       3.000000       0.829900       0.377400       74.676000      94.910000      20.234000      1.760900       0.416000       0.000000      
4177.000000    94.060000      2.140200       0.437300       1.545000       1450.000000    1.318800       0.376100       3.430000       0.000000       3.000000       0.887700       0.328600       74.731000      94.932000      20.201000      1.833400       0.416000       0.000000      
4178.000000    85.360000      2.093000       0.392600       1.032000       1450.000000    1.290500       0.381000       2.800000       0.000000       3.000000       0.746700       0.340600       74.787000      94.955000      20.168000      1.793000       0.416000       0.000000      
4179.000000    87.270000      2.108500       0.394600       0.972000       1450.000000    1.299700       0.397200       2.870000       0.000000       3.000000       0.760600       0.329000       74.843000      94.978000      20.135000      1.806200       0.416000       0.000000      
4180.000000    103.520000     2.134900       0.416900       5.679000       1450.000000    1.315500       0.380800       2.210000       0.000000       3.000000       0.961000       0.328100       74.899000      95.001000      20.102000      1.828900       0.416000       0.000000      
4181.000000    98.420000      2.016300       0.473200       0.996000       1450.000000    1.244300       0.383500       1.640000       0.000000       3.000000       0.881400       0.395000       74.955000      95.023000      20.068000      1.727300       0.416000       0.000000      
4182.000000    86.090000      2.104700       0.449100       1.053000       1450.000000    1.297400       0.374100       1.850000       0.000000       3.000000       0.819100       0.361500       75.011000      95.046000      20.035000      1.803100       0.416000       0.000000      
4183.000000    102.960000     2.093800       0.419800       2.884000       1450.000000    1.290800       0.384900       2.020000       0.000000       3.000000       0.942900       0.363200       75.067000      95.069000      20.002000      1.793700       0.416000       0.000000      
4184.000000    97.920000      2.087900       0.444100       1.245000       1450.000000    1.287200       0.391400       1.640000       0.000000       3.000000       0.890900       0.363600       75.123000      95.091000      19.969000      1.788600       0.416000       0.000000      
4185.000000    98.350000      2.032200       0.453900       1.640000       1450.000000    1.253700       0.390500       1.800000       0.000000       3.000000       0.877300       0.389000       75.179000      95.114000      19.935000      1.740900       0.416000       0.000000      
4186.000000    100.370000     2.014000       0.439600       1.864000       1450.000000    1.242700       0.382900       1.460000       0.000000       3.000000       0.901600       0.385700       75.235000      95.137000      19.902000      1.725300       0.416000       0.000000      
4187.000000    93.440000      2.119500       0.431900       0.959000       1450.000000    1.306100       0.385600       2.310000       0.000000       3.000000       0.838000       0.348200       75.291000      95.160000      19.869000      1.815700       0.416000       0.000000      
4188.000000    99.550000      2.051900       0.447100       0.663000       1450.000000    1.265500       0.369800       1.990000       0.000000       3.000000       0.871100       0.375300       75.347000      95.182000      19.835000      1.757800       0.416000       0.000000      
4189.000000    94.380000      2.097000       0.419000       1.905000       1450.000000    1.292600       0.389200       1.970000       0.000000       3.000000       0.863000       0.348900       75.403000      95.205000      19.802000      1.796400       0.416000       0.000000      
