~Version Information
VERS.                          2.0 : CWLS LAS LOG DATA FORMAT VERSION 2.0
WRAP.                          NO  : One line per depth step
~Well Information
#MNEM.MEAS UNIT            DATA             DESCRIPTION
STRT .M          1000.0000              : First depth
STOP .M          4200.0000              : Last depth
STEP .M             1.0000              : Step
NULL .      -999.25                      : Null value
WELL .      AGB-01                      : Well name
~Curve Information
#MNEM .UNIT                    DESCRIPTION
DEPT      .M                   : DEPT
GR        .API                 : GR
RHOB      .G/C3                : RHOB
NPHI      .V/V                 : NPHI
RT        .OHMM                : RT
VP        .M/S                 : VP
E_STAT    .GPA                 : E_STAT
NU_STAT   .-                   : NU_STAT
UCS       .MPA                 : UCS
IS_CORE   .-                   : IS_CORE
FACIES    .-                   : FACIES
VSH_TRUE  .V/V                 : VSH_TRUE
PHI_TRUE  .V/V                 : PHI_TRUE
PP_MPA    .MPA                 : PP_MPA
SV_MPA    .MPA                 : SV_MPA
SIG_EFF_MPA.MPA                 : SIG_EFF_MPA
E_DYN     .GPA                 : E_DYN
NU_DYN    .-                   : NU_DYN
IS_HC     .-                   : IS_HC
~Parameter Information
# Generated by GeoMech-LogML synthetic generator (Agbada-like physics).
~A
# ...
1638.000000    91.990000      2.148600       0.367100       0.653000       1504.700000    1.341200       0.393500       2.560000       0.000000       3.000000       0.784900       0.324100       16.934000      37.227000      20.293000      1.849700       0.422900       0.000000      
1639.000000    87.040000      2.086500       0.441900       0.689000       1450.000000    1.297500       0.415900       2.010000       0.000000       3.000000       0.817300       0.358700       16.945000      37.250000      20.305000      1.787500       0.416000       0.000000      
1640.000000    94.220000      2.027700       0.464000       0.877000       1450.000000    1.262000       0.382800       2.070000       0.000000       3.000000       0.878500       0.381900       16.955000      37.273000      20.318000      1.737000       0.416000       0.000000      
1641.000000    96.530000      2.089700       0.432500       1.151000       1450.000000    1.299800       0.374200       1.990000       1.000000       3.000000       0.860100       0.362300       16.965000      37.296000      20.330000      1.790200       0.416000       0.000000      
1642.000000    85.360000      2.103400       0.426700       0.606000       1450.000000    1.308300       0.389100       1.740000       0.000000       3.000000       0.768700       0.350800       16.976000      37.318000      20.343000      1.801900       0.416000       0.000000      
1643.000000    89.350000      2.077200       0.417800       0.985000       1450.000000    1.292600       0.386300       2.330000       0.000000       3.000000       0.801900       0.354700       16.986000      37.341000      20.355000      1.779400       0.416000       0.000000      
1644.000000    90.450000      2.080700       0.433000       0.749000       1450.000000    1.294900       0.386200       1.920000       0.000000       3.000000       0.834100       0.362300       16.997000      37.364000      20.367000      1.782400       0.416000       0.000000      
1645.000000    95.920000      2.127400       0.419400       0.873000       1450.000000    1.323300       0.391600       2.640000       0.000000       3.000000       0.836100       0.342600       17.007000      37.387000      20.380000      1.822400       0.416000       0.000000      
1646.000000    91.490000      2.017400       0.463500       1.390000       1450.000000    1.256700       0.391800       1.700000       0.000000       3.000000       0.858000       0.384400       17.017000      37.409000      20.392000      1.728200       0.416000       0.000000      
1647.000000    94.420000      2.108400       0.397800       0.825000       1450.000000    1.312100       0.390700       2.430000       0.000000       3.000000       0.845900       0.351000       17.028000      37.432000      20.405000      1.806200       0.416000       0.000000      
1648.000000    96.520000      2.119700       0.437100       0.907000       1450.000000    1.319100       0.393900       2.610000       0.000000       3.000000       0.874000       0.343400       17.038000      37.455000      20.417000      1.815900       0.416000       0.000000      
1649.000000    95.860000      2.041800       0.455600       1.180000       1450.000000    1.271900       0.399400       1.710000       0.000000       3.000000       0.878200       0.381200       17.048000      37.477000      20.429000      1.749100       0.416000       0.000000      
1650.000000    90.730000      2.106900       0.425500       0.681000       1450.000000    1.311600       0.370400       2.600000       0.000000       3.000000       0.809300       0.351500       17.059000      37.500000      20.442000      1.804900       0.416000       0.000000      
1651.000000    90.770000      2.059800       0.444500       0.662000       1450.000000    1.283000       0.385200       1.760000       0.000000       3.000000       0.808200       0.367400       17.069000      37.523000      20.454000      1.764600       0.416000       0.000000      
1652.000000    95.020000      2.095700       0.455600       1.181000       1450.000000    1.304900       0.380400       2.110000       0.000000       3.000000       0.909200       0.364700       17.079000      37.546000      20.466000      1.795300       0.416000       0.000000      
1653.000000    99.080000      2.087500       0.435900       0.888000       1450.000000    1.300000       0.381200       2.130000       0.000000       3.000000       0.941600       0.359400       17.090000      37.568000      20.479000      1.788300       0.416000       0.000000      
1654.000000    95.060000      2.104300       0.425800       1.035000       1450.000000    1.310200       0.396700       2.180000       0.000000       3.000000       0.851300       0.353800       17.100000      37.591000      20.491000      1.802700       0.416000       0.000000      
1655.000000    94.250000      2.080500       0.442200       0.888000       1450.000000    1.295800       0.398400       1.920000       0.000000       3.000000       0.817600       0.370300       17.110000      37.614000      20.504000      1.782300       0.416000       0.000000      
1656.000000    100.470000     2.118100       0.431400       0.906000       1450.000000    1.318600       0.374600       2.510000       0.000000       3.000000       0.901700       0.345100       17.121000      37.637000      20.516000      1.814500       0.416000       0.000000      
1657.000000    91.710000      2.052500       0.467400       1.819000       1450.000000    1.278800       0.409000       1.870000       0.000000       3.000000       0.844100       0.384800       17.131000      37.659000      20.528000      1.758300       0.416000       0.000000      
1658.000000    95.890000      2.051800       0.452000       1.060000       1450.000000    1.278300       0.373500       1.680000       0.000000       3.000000       0.855900       0.378200       17.141000      37.682000      20.541000      1.757700       0.416000       0.000000      
1659.000000    93.690000      2.073700       0.444600       1.732000       1450.000000    1.291600       0.392200       2.200000       0.000000       3.000000       0.874000       0.356100       17.152000      37.705000      20.553000      1.776400       0.416000       0.000000      
1660.000000    98.950000      2.097900       0.422400       1.194000       1450.000000    1.306200       0.387300       2.340000       0.000000       3.000000       0.900400       0.342700       17.162000      37.727000      20.566000      1.797200       0.416000       0.000000      
1661.000000    90.430000      2.100300       0.410800       1.116000       1450.000000    1.307600       0.393600       1.910000       0.000000       3.000000       0.868800       0.357000       17.172000      37.750000      20.578000      1.799200       0.416000       0.000000      
1662.000000    103.610000     2.055900       0.486600       3.250000       1450.000000    1.280600       0.384500       1.870000       0.000000       3.000000       0.980000       0.384600       17.183000      37.773000      20.590000      1.761200       0.416000       0.000000      
1663.000000    92.640000      2.118600       0.400500       0.651000       1450.000000    1.318600       0.380300       2.350000       0.000000       3.000000       0.788500       0.339000       17.193000      37.796000      20.603000      1.814900       0.416000       0.000000      
1664.000000    96.150000      2.099100       0.423300       1.060000       1450.000000    1.306600       0.411700       2.210000       0.000000       3.000000       0.825000       0.345400       17.203000      37.818000      20.615000      1.798300       0.416000       0.000000      
1665.000000    98.670000      2.058300       0.441000       1.008000       1450.000000    1.281800       0.376000       2.140000       0.000000       3.000000       0.892900       0.361800       17.214000      37.841000      20.628000      1.763300       0.416000       0.000000      
1666.000000    89.460000      2.071500       0.453100       1.139000       1450.000000    1.289700       0.390400       2.180000       0.000000       3.000000       0.883300       0.373700       17.224000      37.864000      20.640000      1.774600       0.416000       0.000000      
