~Version Information
VERS.                          2.0 : CWLS LAS LOG DATA FORMAT VERSION 2.0
WRAP.                          NO  : One line per depth step
~Well Information
#MNEM.MEAS UNIT            DATA             DESCRIPTION
STRT .M          1000.0000              : First depth
STOP .M          4200.0000              : Last depth
STEP .M             1.0000              : Step
NULL .      -999.25                      : Null value
WELL .      AGB-03                      : Well name
~Curve Information
#MNEM .UNIT                    DESCRIPTION
DEPT      .M                   : DEPT
GR        .API                 : GR
RHOB      .G/C3                : RHOB
NPHI      .V/V                 : NPHI
RT        .OHMM                : RT
VP        .M/S                 : VP
E_STAT    .GPA                 : E_STAT
NU_STAT   .-                   : NU_STAT
UCS       .MPA                 : UCS
IS_CORE   .-                   : IS_CORE
FACIES    .-                   : FACIES
VSH_TRUE  .V/V                 : VSH_TRUE
PHI_TRUE  .V/V                 : PHI_TRUE
PP_MPA    .MPA                 : PP_MPA
SV_MPA    .MPA                 : SV_MPA
SIG_EFF_MPA.MPA                 : SIG_EFF_MPA
E_DYN     .GPA                 : E_DYN
NU_DYN    .-                   : NU_DYN
IS_HC     .-                   : IS_HC
~Parameter Information
# Generated by GeoMech-LogML synthetic generator (Agbada-like physics).
~A
# ...
1841.000000    101.470000     2.145100       0.405200       1.960000       1450.000000    1.379100       0.382500       2.820000       0.000000       3.000000       0.950400       0.339700       18.616000      44.743000      26.126000      1.837700       0.416000       0.000000      
1842.000000    97.600000      2.154100       0.392400       0.865000       1610.300000    1.401700       0.414800       3.120000       0.000000       3.000000       0.853600       0.320400       18.627000      44.767000      26.140000      1.868800       0.434000       0.000000      
1843.000000    94.870000      2.133600       0.405400       1.091000       1456.700000    1.372400       0.387100       3.320000       0.000000       3.000000       0.853800       0.314400       18.637000      44.791000      26.155000      1.828900       0.416900       0.000000      
1844.000000    98.800000      2.094700       0.433500       1.901000       1450.000000    1.347100       0.372300       2.390000       0.000000       3.000000       0.928100       0.336700       18.647000      44.816000      26.169000      1.794500       0.416000       0.000000      
1845.000000    93.230000      2.120200       0.409400       1.734000       1523.700000    1.371500       0.396900       2.510000       0.000000       3.000000       0.841600       0.327500       18.657000      44.840000      26.183000      1.828000       0.425100       0.000000      
1846.000000    99.640000      2.099500       0.436100       1.920000       1450.000000    1.349800       0.375300       2.560000       0.000000       3.000000       0.920700       0.344400       18.667000      44.864000      26.197000      1.798600       0.416000       0.000000      
1847.000000    94.420000      2.111900       0.401600       1.162000       1450.000000    1.357400       0.381400       2.300000       0.000000       3.000000       0.894900       0.324000       18.677000      44.889000      26.211000      1.809100       0.416000       0.000000      
1848.000000    94.560000      2.174300       0.366400       1.557000       1595.600000    1.412200       0.389200       2.900000       0.000000       3.000000       0.811000       0.309700       18.687000      44.913000      26.226000      1.884500       0.432600       0.000000      
1849.000000    37.900000      2.250600       0.241600       0.663000       3347.800000    11.678000      0.215000       8.010000       0.000000       0.000000       0.141900       0.241500       18.697000      44.937000      26.240000      21.487200      0.237700       0.000000      
1850.000000    31.520000      2.248600       0.259800       0.993000       3414.600000    11.984400      0.203400       6.640000       0.000000       0.000000       0.084900       0.252900       18.708000      44.961000      26.254000      22.491000      0.233400       0.000000      
1851.000000    35.060000      2.273900       0.236000       1.044000       3371.200000    12.193200      0.173900       6.910000       0.000000       0.000000       0.115300       0.230900       18.718000      44.986000      26.268000      23.221400      0.201300       0.000000      
1852.000000    43.300000      2.262300       0.259800       0.810000       3264.700000    10.974000      0.237100       6.690000       0.000000       0.000000       0.202100       0.244800       18.728000      45.010000      26.282000      19.430100      0.266800       0.000000      
1853.000000    27.890000      2.265700       0.210400       0.939000       3646.400000    12.819000      0.204100       6.870000       0.000000       0.000000       0.042800       0.241900       18.738000      45.034000      26.297000      25.692800      0.236900       0.000000      
1854.000000    33.930000      2.240000       0.270800       0.666000       3463.800000    11.712000      0.230800       5.390000       0.000000       0.000000       0.123500       0.251400       18.748000      45.059000      26.311000      21.628100      0.267400       0.000000      
1855.000000    26.580000      2.226200       0.238200       1.129000       3314.400000    11.810100      0.160800       7.700000       0.000000       0.000000       0.084000       0.250900       18.758000      45.083000      26.325000      21.950100      0.202200       0.000000      
1856.000000    66.820000      2.197900       0.320800       1.292000       2348.600000    5.025600       0.321800       4.880000       0.000000       2.000000       0.508300       0.285100       18.768000      45.107000      26.339000      7.260600       0.358600       0.000000      
1857.000000    74.960000      2.193200       0.334200       1.086000       2217.900000    3.923600       0.369200       3.540000       0.000000       2.000000       0.584200       0.288000       18.778000      45.132000      26.353000      5.523600       0.386800       0.000000      
1858.000000    73.060000      2.207500       0.318600       1.672000       2323.000000    4.531000       0.356700       3.620000       0.000000       2.000000       0.583500       0.271400       18.788000      45.156000      26.368000      6.470200       0.377200       0.000000      
1859.000000    75.710000      2.201200       0.328100       0.624000       2382.700000    5.149700       0.341100       4.390000       0.000000       2.000000       0.523400       0.276300       18.799000      45.180000      26.382000      7.466100       0.359200       0.000000      
1860.000000    64.150000      2.138700       0.335100       0.851000       2349.700000    5.298500       0.313500       3.330000       0.000000       2.000000       0.450600       0.295000       18.809000      45.205000      26.396000      7.711700       0.338700       0.000000      
1861.000000    71.500000      2.204800       0.336300       0.920000       2188.600000    4.490100       0.331400       3.540000       0.000000       2.000000       0.558500       0.280300       18.819000      45.229000      26.410000      6.408500       0.355800       0.000000      
1862.000000    67.410000      2.169300       0.355000       0.603000       2160.800000    3.964000       0.350700       3.740000       0.000000       2.000000       0.531900       0.304900       18.829000      45.253000      26.424000      5.589800       0.374400       0.000000      
1863.000000    75.500000      2.173400       0.353000       0.518000       2131.700000    3.564800       0.350500       3.500000       0.000000       2.000000       0.572300       0.302200       18.839000      45.277000      26.438000      4.982800       0.389100       0.000000      
1864.000000    70.460000      2.216700       0.344700       0.462000       2157.900000    3.906800       0.358700       4.000000       0.000000       2.000000       0.595700       0.284600       18.849000      45.302000      26.453000      5.503600       0.380300       0.000000      
1865.000000    63.230000      2.153100       0.303200       0.707000       2395.700000    5.238400       0.321000       4.140000       0.000000       2.000000       0.477700       0.288200       18.859000      45.326000      26.467000      7.618900       0.352400       0.000000      
1866.000000    69.750000      2.124500       0.362600       1.163000       1886.600000    2.426900       0.392900       3.010000       0.000000       2.000000       0.632400       0.314200       18.869000      45.350000      26.481000      3.312400       0.407900       0.000000      
1867.000000    66.730000      2.230400       0.324000       1.120000       2361.700000    4.908300       0.348900       3.580000       0.000000       2.000000       0.531100       0.282000       18.879000      45.375000      26.495000      7.082700       0.368700       0.000000      
1868.000000    76.270000      2.210500       0.351900       1.091000       2364.800000    4.479900       0.344300       4.070000       0.000000       2.000000       0.566000       0.280300       18.890000      45.399000      26.509000      6.399000       0.385100       0.000000      
1869.000000    59.810000      2.186300       0.342400       0.537000       2454.800000    5.329000       0.345800       3.840000       0.000000       2.000000       0.481300       0.287200       18.900000      45.423000      26.524000      7.773000       0.361700       0.000000      
