~Version Information
VERS.                          2.0 : CWLS LAS LOG DATA FORMAT VERSION 2.0
WRAP.                          NO  : One line per depth step
~Well Information
#MNEM.MEAS UNIT            DATA             DESCRIPTION
STRT .M          1000.0000              : First depth
STOP .M          4200.0000              : Last depth
STEP .M             1.0000              : Step
NULL .      -999.25                      : Null value
WELL .      AGB-01                      : Well name
~Curve Information
#MNEM .UNIT                    DESCRIPTION
DEPT      .M                   : DEPT
GR        .API                 : GR
RHOB      .G/C3                : RHOB
NPHI      .V/V                 : NPHI
RT        .OHMM                : RT
VP        .M/S                 : VP
E_STAT    .GPA                 : E_STAT
NU_STAT   .-                   : NU_STAT
UCS       .MPA                 : UCS
IS_CORE   .-                   : IS_CORE
FACIES    .-                   : FACIES
VSH_TRUE  .V/V                 : VSH_TRUE
PHI_TRUE  .V/V                 : PHI_TRUE
PP_MPA    .MPA                 : PP_MPA
SV_MPA    .MPA                 : SV_MPA
SIG_EFF_MPA.MPA                 : SIG_EFF_MPA
E_DYN     .GPA                 : E_DYN
NU_DYN    .-                   : NU_DYN
IS_HC     .-                   : IS_HC
~Parameter Information
# Generated by GeoMech-LogML synthetic generator (Agbada-like physics).
~A
# ...
3523.000000    96.830000      2.193600       0.378400       1.499000       1674.600000    1.377300       0.391500       4.890000       0.000000       3.000000       0.895200       0.288300       45.458000      80.069000      34.610000      1.910500       0.439500       0.000000      
3524.000000    89.480000      2.228000       0.333500       1.420000       1732.900000    1.772300       0.393300       5.430000       0.000000       3.000000       0.837900       0.264900       45.492000      80.091000      34.599000      2.479300       0.425300       0.000000      
3525.000000    90.420000      2.237400       0.354600       1.182000       1870.000000    1.577900       0.419300       4.490000       0.000000       3.000000       0.829900       0.276600       45.527000      80.114000      34.587000      2.198600       0.446200       0.000000      
3526.000000    89.330000      2.223700       0.362100       1.961000       1846.100000    1.406000       0.413400       5.380000       0.000000       3.000000       0.849000       0.277400       45.561000      80.137000      34.576000      1.952500       0.450000       0.000000      
3527.000000    90.680000      2.215100       0.355500       1.520000       1736.300000    1.597300       0.413100       5.010000       0.000000       3.000000       0.813500       0.281000       45.595000      80.160000      34.564000      2.227300       0.434200       0.000000      
3528.000000    95.280000      2.218600       0.331400       1.727000       1947.500000    1.507400       0.406400       4.310000       0.000000       3.000000       0.844000       0.273800       45.630000      80.182000      34.553000      2.098400       0.450000       0.000000      
3529.000000    91.930000      2.192400       0.366100       1.040000       1833.900000    1.570600       0.420000       3.910000       0.000000       3.000000       0.823100       0.278100       45.664000      80.205000      34.541000      2.189500       0.442600       0.000000      
3530.000000    96.470000      2.214200       0.369700       1.696000       1823.800000    1.411300       0.420000       4.800000       0.000000       3.000000       0.883600       0.262200       45.698000      80.228000      34.529000      1.961100       0.449400       0.000000      
3531.000000    95.780000      2.174700       0.372600       1.275000       1568.300000    1.355300       0.391500       4.080000       0.000000       3.000000       0.836400       0.300300       45.733000      80.250000      34.518000      1.881300       0.429900       0.000000      
3532.000000    96.990000      2.280400       0.317500       1.889000       2116.100000    1.997700       0.413000       5.840000       0.000000       3.000000       0.854400       0.252700       45.767000      80.273000      34.506000      2.811600       0.447400       0.000000      
3533.000000    93.990000      2.207400       0.386500       1.501000       1658.900000    1.382500       0.420000       4.250000       0.000000       3.000000       0.857800       0.292900       45.802000      80.296000      34.494000      1.920700       0.438200       0.000000      
3534.000000    93.260000      2.201000       0.356100       3.141000       1721.400000    1.383100       0.412900       4.830000       0.000000       3.000000       0.881500       0.265700       45.836000      80.319000      34.482000      1.921700       0.443200       0.000000      
3535.000000    90.560000      2.169100       0.372500       1.101000       1720.800000    1.363400       0.406100       3.240000       0.000000       3.000000       0.796600       0.304700       45.871000      80.341000      34.470000      1.893800       0.443100       0.000000      
3536.000000    93.220000      2.204400       0.374800       1.830000       1822.400000    1.391200       0.420000       4.130000       0.000000       3.000000       0.848600       0.284800       45.906000      80.364000      34.458000      1.933700       0.449900       0.000000      
3537.000000    104.350000     2.172000       0.366900       1.817000       1498.300000    1.345600       0.396600       3.470000       0.000000       3.000000       0.928400       0.297000       45.940000      80.387000      34.447000      1.868700       0.422100       0.000000      
3538.000000    89.550000      2.236900       0.354500       1.125000       1809.300000    1.943500       0.403400       4.720000       0.000000       3.000000       0.794300       0.275300       45.975000      80.410000      34.435000      2.733700       0.424600       0.000000      
3539.000000    85.190000      2.195200       0.360400       1.086000       1882.100000    1.696300       0.406600       4.800000       0.000000       3.000000       0.804800       0.280100       46.010000      80.432000      34.423000      2.373600       0.440800       0.000000      
3540.000000    91.070000      2.206200       0.361200       1.834000       1905.400000    1.876800       0.412200       4.590000       0.000000       3.000000       0.789200       0.279300       46.044000      80.455000      34.411000      2.636500       0.435200       0.000000      
3541.000000    93.180000      2.218600       0.359800       2.192000       1708.900000    1.392200       0.400100       4.500000       0.000000       3.000000       0.855700       0.273800       46.079000      80.478000      34.399000      1.935800       0.442200       0.000000      
3542.000000    92.200000      2.194200       0.328900       1.705000       1857.500000    1.561900       0.413300       4.730000       0.000000       3.000000       0.815900       0.281200       46.114000      80.500000      34.387000      2.179600       0.444700       0.000000      
3543.000000    99.730000      2.218600       0.344800       2.009000       1737.600000    1.394100       0.414800       4.030000       0.000000       3.000000       0.862200       0.277300       46.149000      80.523000      34.374000      1.938600       0.444300       0.000000      
3544.000000    95.420000      2.215700       0.351600       1.771000       1717.400000    1.390800       0.413600       3.970000       0.000000       3.000000       0.890300       0.280100       46.184000      80.546000      34.362000      1.934100       0.442900       0.000000      
3545.000000    92.310000      2.245000       0.353400       1.249000       1866.500000    2.167700       0.389900       4.570000       0.000000       3.000000       0.783300       0.271600       46.218000      80.569000      34.350000      3.065000       0.420000       0.000000      
3546.000000    89.810000      2.136600       0.379000       1.264000       1662.400000    1.338700       0.415800       3.590000       0.000000       3.000000       0.835100       0.305300       46.253000      80.591000      34.338000      1.859600       0.438500       0.000000      
3547.000000    92.130000      2.191100       0.362800       1.636000       1808.300000    1.381600       0.414500       5.160000       0.000000       3.000000       0.821000       0.296700       46.288000      80.614000      34.326000      1.920900       0.449000       0.000000      
3548.000000    94.920000      2.208700       0.345800       1.886000       1581.500000    1.375700       0.383000       4.540000       0.000000       3.000000       0.852100       0.280700       46.323000      80.637000      34.314000      1.912400       0.431200       0.000000      
3549.000000    93.410000      2.214100       0.369000       1.492000       1677.800000    1.387000       0.408400       3.900000       0.000000       3.000000       0.886000       0.288100       46.358000      80.660000      34.301000      1.928600       0.439800       0.000000      
3550.000000    100.170000     2.206300       0.367500       2.098000       1762.500000    1.388200       0.413300       3.810000       0.000000       3.000000       0.881800       0.281500       46.393000      80.682000      34.289000      1.930300       0.446100       0.000000      
3551.000000    97.510000      2.208000       0.362600       2.220000       1619.500000    1.378700       0.396400       3.720000       0.000000       3.000000       0.898100       0.291000       46.428000      80.705000      34.277000      1.916700       0.434800       0.000000      
