~Version Information
VERS.                          2.0 : CWLS LAS LOG DATA FORMAT VERSION 2.0
WRAP.                          NO  : One line per depth step
~Well Information
#MNEM.MEAS UNIT            DATA             DESCRIPTION
STRT .M          1000.0000              : First depth
STOP .M          4200.0000              : Last depth
STEP .M             1.0000              : Step
NULL .      -999.25                      : Null value
WELL .      AGB-01                      : Well name
~Curve Information
#MNEM .UNIT                    DESCRIPTION
DEPT      .M                   : DEPT
GR        .API                 : GR
RHOB      .G/C3                : RHOB
NPHI      .V/V                 : NPHI
RT        .OHMM                : RT
VP        .M/S                 : VP
E_STAT    .GPA                 : E_STAT
NU_STAT   .-                   : NU_STAT
UCS       .MPA                 : UCS
IS_CORE   .-                   : IS_CORE
FACIES    .-                   : FACIES
VSH_TRUE  .V/V                 : VSH_TRUE
PHI_TRUE  .V/V                 : PHI_TRUE
PP_MPA    .MPA                 : PP_MPA
SV_MPA    .MPA                 : SV_MPA
SIG_EFF_MPA.MPA                 : SIG_EFF_MPA
E_DYN     .GPA                 : E_DYN
NU_DYN    .-                   : NU_DYN
IS_HC     .-                   : IS_HC
~Parameter Information
# Generated by GeoMech-LogML synthetic generator (Agbada-like physics).
~A
# ...
3958.000000    97.590000      2.145800       0.347000       1.147000       1581.600000    1.343000       0.386700       3.350000       0.000000       3.000000       0.822100       0.309900       63.348000      89.955000      26.607000      1.858000       0.431200       0.000000      
3959.000000    93.140000      2.175900       0.369900       1.356000       1727.600000    1.372800       0.410200       3.730000       0.000000       3.000000       0.789500       0.305000       63.397000      89.978000      26.581000      1.900400       0.443600       0.000000      
3960.000000    87.970000      2.092000       0.400200       1.184000       1450.000000    1.296700       0.385100       2.510000       0.000000       3.000000       0.826500       0.340700       63.445000      90.001000      26.556000      1.792200       0.416000       0.000000      
3961.000000    92.900000      2.145800       0.403800       2.041000       1517.200000    1.336900       0.387000       2.800000       0.000000       3.000000       0.863500       0.322400       63.493000      90.023000      26.530000      1.849100       0.424400       0.000000      
3962.000000    99.020000      2.130300       0.393100       1.665000       1494.900000    1.325200       0.376100       3.280000       0.000000       3.000000       0.885000       0.324700       63.541000      90.046000      26.505000      1.832400       0.421700       0.000000      
3963.000000    93.550000      2.169000       0.386400       1.631000       1529.600000    1.352400       0.398900       3.110000       0.000000       3.000000       0.845200       0.310600       63.590000      90.069000      26.479000      1.870900       0.425800       0.000000      
3964.000000    86.270000      2.152400       0.389900       2.259000       1485.500000    1.337600       0.388800       3.010000       0.000000       3.000000       0.859000       0.313900       63.638000      90.091000      26.453000      1.849900       0.420600       0.000000      
3965.000000    85.840000      2.198200       0.383800       1.229000       1833.600000    2.055400       0.385400       3.380000       0.000000       3.000000       0.733400       0.289100       63.687000      90.114000      26.427000      2.886000       0.420300       0.000000      
3966.000000    102.280000     2.127100       0.433000       1.864000       1450.000000    1.318200       0.386300       2.370000       0.000000       3.000000       0.921700       0.342500       63.735000      90.137000      26.402000      1.822200       0.416000       0.000000      
3967.000000    93.160000      2.139100       0.412500       2.116000       1450.000000    1.325500       0.390700       2.890000       0.000000       3.000000       0.891400       0.331600       63.784000      90.160000      26.376000      1.832500       0.416000       0.000000      
3968.000000    102.650000     2.072600       0.453900       2.052000       1450.000000    1.285300       0.376500       2.330000       0.000000       3.000000       0.908400       0.355100       63.832000      90.182000      26.350000      1.775500       0.416000       0.000000      
3969.000000    100.960000     2.145200       0.420300       3.705000       1450.000000    1.329200       0.390800       3.130000       0.000000       3.000000       0.946600       0.321900       63.881000      90.205000      26.324000      1.837700       0.416000       0.000000      
3970.000000    87.070000      2.162600       0.384100       1.743000       1583.600000    1.353900       0.402500       3.150000       0.000000       3.000000       0.824900       0.293400       63.930000      90.228000      26.298000      1.872800       0.431400       0.000000      
3971.000000    81.660000      2.193200       0.362400       0.991000       2013.000000    1.890900       0.410200       4.360000       0.000000       3.000000       0.752700       0.288700       63.978000      90.251000      26.272000      2.645300       0.442500       0.000000      
3972.000000    85.960000      2.143400       0.383100       1.054000       1491.100000    1.332900       0.385900       2.730000       0.000000       3.000000       0.823400       0.311400       64.027000      90.273000      26.246000      1.843000       0.421300       0.000000      
3973.000000    84.620000      2.151800       0.368500       1.986000       1636.500000    1.351900       0.411200       2.530000       0.000000       3.000000       0.792100       0.320100       64.076000      90.296000      26.220000      1.869800       0.436300       0.000000      
3974.000000    100.270000     2.083900       0.431900       1.575000       1450.000000    1.292200       0.391600       3.110000       0.000000       3.000000       0.907200       0.341300       64.124000      90.319000      26.194000      1.785200       0.416000       0.000000      
3975.000000    103.390000     2.139100       0.425000       2.158000       1450.000000    1.325500       0.389200       2.490000       0.000000       3.000000       0.951000       0.331900       64.173000      90.341000      26.168000      1.832400       0.416000       0.000000      
3976.000000    97.610000      2.100000       0.423900       1.305000       1450.000000    1.302000       0.359800       2.750000       0.000000       3.000000       0.873100       0.354000       64.222000      90.364000      26.142000      1.799000       0.416000       0.000000      
3977.000000    97.140000      2.148200       0.416800       2.246000       1450.000000    1.331000       0.381100       3.010000       0.000000       3.000000       0.895100       0.325000       64.271000      90.387000      26.116000      1.840300       0.416000       0.000000      
3978.000000    87.110000      2.101700       0.401100       0.852000       1599.000000    1.318100       0.410000       2.910000       0.000000       3.000000       0.773500       0.328500       64.320000      90.410000      26.090000      1.822000       0.432900       0.000000      
3979.000000    98.830000      2.190300       0.380100       1.333000       1589.000000    1.371200       0.390300       3.190000       0.000000       3.000000       0.821100       0.314200       64.369000      90.432000      26.064000      1.897500       0.431900       0.000000      
3980.000000    95.060000      2.090200       0.421600       1.827000       1450.000000    1.295900       0.372900       2.470000       0.000000       3.000000       0.904400       0.338800       64.418000      90.455000      26.037000      1.790600       0.416000       0.000000      
3981.000000    86.980000      2.159500       0.407600       1.896000       1450.000000    1.337700       0.366100       2.730000       0.000000       3.000000       0.891600       0.319300       64.467000      90.478000      26.011000      1.850000       0.416000       0.000000      
3982.000000    98.390000      2.145300       0.374700       1.574000       1450.000000    1.329200       0.395200       3.010000       0.000000       3.000000       0.896100       0.325100       64.516000      90.501000      25.985000      1.837800       0.416000       0.000000      
3983.000000    91.580000      2.139200       0.400000       1.268000       1450.000000    1.325400       0.380300       3.200000       0.000000       3.000000       0.850900       0.326000       64.565000      90.523000      25.959000      1.832600       0.416000       0.000000      
3984.000000    92.920000      2.129700       0.400000       1.040000       1450.000000    1.319600       0.400500       2.860000       0.000000       3.000000       0.817700       0.323700       64.614000      90.546000      25.932000      1.824400       0.416000       0.000000      
3985.000000    91.890000      2.164300       0.374000       0.968000       1450.000000    1.340400       0.365600       3.140000       1.000000       3.000000       0.826500       0.312600       64.663000      90.569000      25.906000      1.854000       0.416000       0.000000      
3986.000000    102.460000     2.107900       0.432300       1.757000       1450.000000    1.306400       0.385800       2.580000       0.000000       3.000000       0.922100       0.346600       64.712000      90.591000      25.879000      1.805800       0.416000       0.000000      
