~Version Information
VERS.                          2.0 : CWLS LAS LOG DATA FORMAT VERSION 2.0
WRAP.                          NO  : One line per depth step
~Well Information
#MNEM.MEAS UNIT            DATA             DESCRIPTION
STRT .M          1000.0000              : First depth
STOP .M          4200.0000              : Last depth
STEP .M             1.0000              : Step
NULL .      -999.25                      : Null value
WELL .      AGB-03                      : Well name
~Curve Information
#MNEM .UNIT                    DESCRIPTION
DEPT      .M                   : DEPT
GR        .API                 : GR
RHOB      .G/C3                : RHOB
NPHI      .V/V                 : NPHI
RT        .OHMM                : RT
VP        .M/S                 : VP
E_STAT    .GPA                 : E_STAT
NU_STAT   .-                   : NU_STAT
UCS       .MPA                 : UCS
IS_CORE   .-                   : IS_CORE
FACIES    .-                   : FACIES
VSH_TRUE  .V/V                 : VSH_TRUE
PHI_TRUE  .V/V                 : PHI_TRUE
PP_MPA    .MPA                 : PP_MPA
SV_MPA    .MPA                 : SV_MPA
SIG_EFF_MPA.MPA                 : SIG_EFF_MPA
E_DYN     .GPA                 : E_DYN
NU_DYN    .-                   : NU_DYN
IS_HC     .-                   : IS_HC
~Parameter Information
# Generated by GeoMech-LogML synthetic generator (Agbada-like physics).
~A
# ...
2276.000000    29.640000      2.277400       0.216600       1.564000       3753.000000    13.305800      0.205600       10.250000      0.000000       0.000000       0.072700       0.221500       23.015000      55.315000      32.299000      27.907900      0.224500       0.000000      
2277.000000    38.940000      2.326700       0.212500       0.963000       3714.200000    13.029400      0.253500       10.030000      0.000000       0.000000       0.182100       0.201500       23.025000      55.339000      32.314000      26.517900      0.254500       0.000000      
2278.000000    30.840000      2.321500       0.215100       1.634000       3883.000000    13.628400      0.210500       10.280000      1.000000       0.000000       0.081700       0.208500       23.036000      55.363000      32.328000      29.901800      0.235900       0.000000      
2279.000000    31.410000      2.289600       0.208700       1.709000       3689.100000    13.269000      0.186000       10.740000      0.000000       0.000000       0.089300       0.214900       23.046000      55.388000      32.342000      27.726700      0.208800       0.000000      
2280.000000    23.400000      2.305900       0.214400       1.474000       3872.000000    13.648700      0.185200       11.030000      0.000000       0.000000       0.052100       0.214900       23.056000      55.412000      32.356000      30.064500      0.224800       0.000000      
2281.000000    23.500000      2.302000       0.201000       0.837000       3839.000000    13.607800      0.196200       8.720000       0.000000       0.000000       0.044500       0.218400       23.066000      55.436000      32.370000      29.784900      0.218400       0.000000      
2282.000000    28.900000      2.288900       0.188900       1.319000       3816.300000    13.423200      0.204200       12.340000      0.000000       0.000000       0.099400       0.208300       23.076000      55.461000      32.385000      28.613600      0.233100       0.000000      
2283.000000    37.970000      2.306900       0.199200       2.703000       3797.500000    13.397500      0.221400       11.550000      0.000000       0.000000       0.119400       0.204000       23.086000      55.485000      32.399000      28.470100      0.234900       0.000000      
2284.000000    32.640000      2.354600       0.215100       0.877000       3956.500000    13.718300      0.232100       11.320000      0.000000       0.000000       0.099700       0.202300       23.096000      55.509000      32.413000      30.634400      0.251400       0.000000      
2285.000000    39.730000      2.334000       0.190200       1.217000       3732.600000    13.313400      0.227400       11.090000      0.000000       0.000000       0.141600       0.201300       23.106000      55.533000      32.427000      28.008300      0.230900       0.000000      
2286.000000    33.700000      2.315500       0.211400       2.201000       3919.200000    13.468000      0.220100       10.340000      0.000000       0.000000       0.126900       0.203600       23.116000      55.558000      32.441000      28.916000      0.262600       0.000000      
2287.000000    39.800000      2.301400       0.199100       1.458000       3700.500000    13.124300      0.216900       9.610000       0.000000       0.000000       0.153900       0.201900       23.127000      55.582000      32.456000      27.033800      0.233400       0.000000      
2288.000000    26.310000      2.328200       0.173600       1.164000       3990.200000    13.989400      0.180900       14.630000      0.000000       0.000000       0.032600       0.191900       23.137000      55.606000      32.470000      33.529100      0.195900       0.000000      
2289.000000    36.030000      2.348400       0.206100       1.442000       3776.800000    13.484900      0.187700       11.540000      0.000000       0.000000       0.114500       0.204000       23.147000      55.631000      32.484000      29.047700      0.226700       0.000000      
2290.000000    24.570000      2.324800       0.186900       1.585000       4174.600000    14.068000      0.205900       16.670000      0.000000       0.000000       0.020000       0.189200       23.157000      55.655000      32.498000      35.286000      0.223800       0.000000      
2291.000000    30.870000      2.283200       0.201000       0.848000       3782.400000    13.323400      0.213700       9.470000       0.000000       0.000000       0.098400       0.212200       23.167000      55.679000      32.512000      28.107700      0.231500       0.000000      
2292.000000    19.070000      2.352300       0.205900       1.839000       4112.300000    14.036100      0.190300       13.550000      0.000000       0.000000       0.020000       0.198700       23.177000      55.704000      32.527000      34.503300      0.226500       0.000000      
2293.000000    32.940000      2.345500       0.182500       2.126000       3976.500000    13.818300      0.238100       13.940000      0.000000       0.000000       0.077500       0.199800       23.187000      55.728000      32.541000      31.614000      0.237300       0.000000      
2294.000000    23.780000      2.341800       0.179300       1.010000       4279.500000    14.078500      0.207400       14.000000      0.000000       0.000000       0.020000       0.180500       23.197000      55.752000      32.555000      36.969100      0.230400       0.000000      
2295.000000    27.710000      2.322700       0.181900       0.789000       3986.200000    13.867600      0.200400       12.800000      1.000000       0.000000       0.053600       0.199900       23.207000      55.777000      32.569000      32.140600      0.223900       0.000000      
2296.000000    31.540000      2.312500       0.196900       1.835000       3829.000000    13.462500      0.205700       12.880000      0.000000       0.000000       0.109500       0.204900       23.218000      55.801000      32.583000      28.967000      0.235900       0.000000      
2297.000000    32.850000      2.279200       0.213700       0.753000       3690.300000    13.227800      0.175000       11.570000      0.000000       0.000000       0.089400       0.215100       23.228000      55.825000      32.597000      27.628100      0.208500       0.000000      
2298.000000    26.100000      2.262000       0.115600       26.298000      3591.300000    13.255200      0.121200       14.880000      0.000000       0.000000       0.026300       0.197500       23.238000      55.849000      32.612000      27.780900      0.143100       1.000000      
2299.000000    42.790000      2.228800       0.136400       30.703000      3174.600000    11.467000      0.124000       8.420000       0.000000       0.000000       0.114700       0.233800       23.248000      55.874000      32.626000      20.856700      0.172000       1.000000      
2300.000000    29.600000      2.276500       0.116900       29.313000      3489.600000    12.867300      0.126900       12.200000      0.000000       0.000000       0.080700       0.200500       23.258000      55.898000      32.640000      25.899600      0.165600       1.000000      
2301.000000    27.230000      2.272800       0.103200       32.173000      3460.700000    12.906000      0.128900       11.980000      0.000000       0.000000       0.044400       0.205900       23.268000      55.922000      32.654000      26.077700      0.134700       1.000000      
2302.000000    31.750000      2.255000       0.115200       28.616000      3392.400000    12.598700      0.113100       11.390000      0.000000       0.000000       0.084600       0.202100       23.278000      55.947000      32.668000      24.772000      0.139800       1.000000      
2303.000000    23.110000      2.245200       0.131600       31.123000      3559.100000    13.096000      0.119200       10.710000      0.000000       0.000000       0.020000       0.206600       23.288000      55.971000      32.683000      26.983100      0.147800       1.000000      
2304.000000    27.170000      2.232300       0.112400       18.572000      3404.100000    12.388700      0.146500       12.930000      0.000000       0.000000       0.111600       0.204400       23.298000      55.995000      32.697000      23.960900      0.174400       1.000000      
