~Version Information
VERS.                          2.0 : CWLS LAS LOG DATA FORMAT VERSION 2.0
WRAP.                          NO  : One line per depth step
~Well Information
#MNEM.MEAS UNIT            DATA             DESCRIPTION
STRT .M          1000.0000              : First depth
STOP .M          4200.0000              : Last depth
STEP .M             1.0000              : Step
NULL .      -999.25                      : Null value
WELL .      AGB-01                      : Well name
~Curve Information
#MNEM .UNIT                    DESCRIPTION
DEPT      .M                   : DEPT
GR        .API                 : GR
RHOB      .G/C3                : RHOB
NPHI      .V/V                 : NPHI
RT        .OHMM                : RT
VP        .M/S                 : VP
E_STAT    .GPA                 : E_STAT
NU_STAT   .-                   : NU_STAT
UCS       .MPA                 : UCS
IS_CORE   .-                   : IS_CORE
FACIES    .-                   : FACIES
VSH_TRUE  .V/V                 : VSH_TRUE
PHI_TRUE  .V/V                 : PHI_TRUE
PP_MPA    .MPA                 : PP_MPA
SV_MPA    .MPA                 : SV_MPA
SIG_EFF_MPA.MPA                 : SIG_EFF_MPA
E_DYN     .GPA                 : E_DYN
NU_DYN    .-                   : NU_DYN
IS_HC     .-                   : IS_HC
~Parameter Information
# Generated by GeoMech-LogML synthetic generator (Agbada-like physics).
~A
# ...
1435.000000    97.090000      2.080300       0.434200       0.849000       1450.000000    1.278600       0.374200       1.530000       0.000000       3.000000       0.847900       0.360300       14.836000      32.614000      17.778000      1.782100       0.416000       0.000000      
1436.000000    99.130000      2.096200       0.432200       0.858000       1450.000000    1.288200       0.387800       1.630000       0.000000       3.000000       0.893700       0.366000       14.846000      32.637000      17.790000      1.795800       0.416000       0.000000      
1437.000000    89.890000      2.076400       0.417400       0.751000       1450.000000    1.276300       0.385100       2.260000       0.000000       3.000000       0.817900       0.359600       14.856000      32.659000      17.803000      1.778700       0.416000       0.000000      
1438.000000    86.190000      2.047800       0.449700       0.824000       1450.000000    1.259200       0.381400       1.990000       0.000000       3.000000       0.748800       0.356300       14.867000      32.682000      17.815000      1.754300       0.416000       0.000000      
1439.000000    98.550000      2.036300       0.437200       1.024000       1450.000000    1.252400       0.397200       1.630000       0.000000       3.000000       0.881500       0.383000       14.877000      32.705000      17.828000      1.744500       0.416000       0.000000      
1440.000000    97.660000      2.026700       0.463400       0.976000       1450.000000    1.246700       0.383800       1.880000       0.000000       3.000000       0.872300       0.388700       14.887000      32.727000      17.840000      1.736200       0.416000       0.000000      
1441.000000    99.410000      2.053700       0.439900       1.410000       1450.000000    1.262900       0.390200       1.780000       0.000000       3.000000       0.907100       0.370000       14.898000      32.750000      17.852000      1.759300       0.416000       0.000000      
1442.000000    90.710000      2.090900       0.409900       0.724000       1450.000000    1.285200       0.382700       1.890000       0.000000       3.000000       0.818500       0.343200       14.908000      32.773000      17.865000      1.791200       0.416000       0.000000      
1443.000000    96.600000      2.011300       0.460100       0.616000       1450.000000    1.237500       0.397300       1.710000       0.000000       3.000000       0.871400       0.386400       14.918000      32.796000      17.877000      1.723000       0.416000       0.000000      
1444.000000    89.340000      2.050700       0.439400       0.570000       1450.000000    1.261200       0.386800       1.910000       0.000000       3.000000       0.787200       0.370300       14.929000      32.818000      17.890000      1.756800       0.416000       0.000000      
1445.000000    95.040000      2.066500       0.443000       0.941000       1450.000000    1.270700       0.384800       2.000000       0.000000       3.000000       0.870400       0.376800       14.939000      32.841000      17.902000      1.770300       0.416000       0.000000      
1446.000000    88.800000      2.079500       0.449800       0.650000       1450.000000    1.278600       0.381000       1.780000       0.000000       3.000000       0.794600       0.367400       14.949000      32.864000      17.914000      1.781500       0.416000       0.000000      
1447.000000    94.860000      2.060500       0.458400       0.943000       1450.000000    1.267200       0.391900       1.890000       0.000000       3.000000       0.830400       0.380900       14.960000      32.887000      17.927000      1.765200       0.416000       0.000000      
1448.000000    98.060000      2.049700       0.455300       0.690000       1450.000000    1.260800       0.387300       1.380000       0.000000       3.000000       0.851400       0.387000       14.970000      32.909000      17.939000      1.755900       0.416000       0.000000      
1449.000000    90.000000      2.093500       0.439100       1.004000       1450.000000    1.287000       0.379800       2.310000       0.000000       3.000000       0.837900       0.357100       14.981000      32.932000      17.952000      1.793400       0.416000       0.000000      
1450.000000    100.900000     1.989900       0.500000       0.762000       1450.000000    1.225000       0.385600       1.460000       0.000000       3.000000       0.912200       0.416900       14.991000      32.955000      17.964000      1.704700       0.416000       0.000000      
1451.000000    38.630000      2.200500       0.280000       0.461000       2969.700000    9.166500       0.242500       3.750000       1.000000       0.000000       0.121700       0.285600       15.001000      32.977000      17.976000      16.176200      0.249900       0.000000      
1452.000000    23.810000      2.201500       0.262900       0.410000       3071.900000    10.079100      0.183200       5.210000       0.000000       0.000000       0.057200       0.274400       15.012000      33.000000      17.989000      18.634700      0.202700       0.000000      
1453.000000    26.250000      2.170900       0.290000       0.544000       3021.000000    9.770300       0.176500       4.390000       0.000000       0.000000       0.042000       0.287400       15.022000      33.023000      18.001000      17.762800      0.203000       0.000000      
1454.000000    32.630000      2.143200       0.305300       0.351000       2931.500000    8.593700       0.230200       3.830000       0.000000       0.000000       0.097700       0.309800       15.032000      33.046000      18.013000      14.782100      0.268700       0.000000      
1455.000000    30.360000      2.196600       0.249400       0.825000       3011.000000    9.354100       0.223400       4.110000       0.000000       0.000000       0.100000       0.287900       15.043000      33.068000      18.026000      16.652400      0.248200       0.000000      
1456.000000    28.710000      2.178300       0.277700       0.362000       3128.000000    10.305800      0.167100       5.110000       0.000000       0.000000       0.020000       0.277700       15.053000      33.091000      18.038000      19.303000      0.194900       0.000000      
1457.000000    27.240000      2.211300       0.276400       0.790000       3084.900000    9.586000       0.231000       4.530000       1.000000       0.000000       0.116800       0.277300       15.063000      33.114000      18.051000      17.262100      0.258200       0.000000      
1458.000000    29.820000      2.167500       0.278900       0.499000       2936.700000    9.257800       0.196500       3.930000       0.000000       0.000000       0.073200       0.293900       15.074000      33.137000      18.063000      16.405800      0.218700       0.000000      
1459.000000    30.550000      2.159900       0.266400       0.487000       3238.900000    10.074500      0.228700       4.020000       0.000000       0.000000       0.033500       0.289200       15.084000      33.159000      18.075000      18.621000      0.257300       0.000000      
1460.000000    29.650000      2.163200       0.274200       0.771000       3065.100000    9.527200       0.225700       3.260000       0.000000       0.000000       0.061400       0.294000       15.094000      33.182000      18.088000      17.107300      0.244500       0.000000      
1461.000000    24.910000      2.223400       0.249500       1.017000       3295.200000    10.906200      0.202000       5.110000       0.000000       0.000000       0.020000       0.265500       15.105000      33.205000      18.100000      21.238100      0.217000       0.000000      
1462.000000    32.030000      2.196200       0.262200       0.636000       3074.900000    9.475000       0.237900       4.310000       0.000000       0.000000       0.124400       0.276800       15.115000      33.227000      18.113000      16.970700      0.260000       0.000000      
1463.000000    25.550000      2.198100       0.275100       0.465000       3026.300000    9.644800       0.209500       4.480000       0.000000       0.000000       0.077500       0.284700       15.125000      33.250000      18.125000      17.424100      0.227900       0.000000      
