~Version Information
VERS.                          2.0 : CWLS LAS LOG DATA FORMAT VERSION 2.0
WRAP.                          NO  : One line per depth step
~Well Information
#MNEM.MEAS UNIT            DATA             DESCRIPTION
STRT .M          1000.0000              : First depth
STOP .M          4200.0000              : Last depth
STEP .M             1.0000              : Step
NULL .      -999.25                      : Null value
WELL .      AGB-03                      : Well name
~Curve Information
#MNEM .UNIT                    DESCRIPTION
DEPT      .M                   : DEPT
GR        .API                 : GR
RHOB      .G/C3                : RHOB
NPHI      .V/V                 : NPHI
RT        .OHMM                : RT
VP        .M/S                 : VP
E_STAT    .GPA                 : E_STAT
NU_STAT   .-                   : NU_STAT
UCS       .MPA                 : UCS
IS_CORE   .-                   : IS_CORE
FACIES    .-                   : FACIES
VSH_TRUE  .V/V                 : VSH_TRUE
PHI_TRUE  .V/V                 : PHI_TRUE
PP_MPA    .MPA                 : PP_MPA
SV_MPA    .MPA                 : SV_MPA
SIG_EFF_MPA.MPA                 : SIG_EFF_MPA
E_DYN     .GPA                 : E_DYN
NU_DYN    .-                   : NU_DYN
IS_HC     .-                   : IS_HC
~Parameter Information
# Generated by GeoMech-LogML synthetic generator (Agbada-like physics).
~A
# ...
1638.000000    34.260000      2.241400       0.250200       0.964000       3350.700000    11.583900      0.223500       6.580000       0.000000       0.000000       0.098700       0.251000       16.564000      39.809000      23.245000      21.479200      0.236500       0.000000      
1639.000000    25.980000      2.235200       0.229800       0.844000       3329.600000    11.901600      0.168700       8.220000       0.000000       0.000000       0.051700       0.250100       16.574000      39.833000      23.260000      22.523100      0.191900       0.000000      
1640.000000    33.510000      2.195500       0.270800       0.634000       3227.600000    10.935300      0.207300       4.420000       0.000000       0.000000       0.074500       0.276000       16.584000      39.858000      23.274000      19.530200      0.236200       0.000000      
1641.000000    31.190000      2.248700       0.259100       0.598000       3223.900000    10.970600      0.213800       6.690000       0.000000       0.000000       0.138900       0.256700       16.594000      39.882000      23.288000      19.625700      0.245800       0.000000      
1642.000000    27.910000      2.195400       0.257900       0.605000       3266.900000    11.308600      0.190300       5.020000       0.000000       0.000000       0.041800       0.274100       16.604000      39.906000      23.302000      20.607500      0.217200       0.000000      
1643.000000    34.730000      2.243000       0.215100       1.162000       3300.900000    11.248600      0.223300       6.290000       0.000000       0.000000       0.115000       0.257700       16.614000      39.931000      23.316000      20.423000      0.248500       0.000000      
1644.000000    38.700000      2.227700       0.277400       1.164000       3174.200000    10.364300      0.235600       5.890000       0.000000       0.000000       0.179400       0.260500       16.624000      39.955000      23.331000      17.976900      0.269600       0.000000      
1645.000000    30.690000      2.226100       0.238000       0.877000       3415.200000    11.933700      0.195500       6.850000       0.000000       0.000000       0.041300       0.258700       16.635000      39.979000      23.345000      22.596700      0.224300       0.000000      
1646.000000    29.290000      2.210000       0.260100       1.133000       3207.400000    10.829500      0.222400       4.530000       0.000000       0.000000       0.119900       0.264400       16.645000      40.004000      23.359000      19.209000      0.242400       0.000000      
1647.000000    22.110000      2.240800       0.253300       0.833000       3606.700000    12.469300      0.227900       6.960000       0.000000       0.000000       0.020000       0.253200       16.655000      40.028000      23.373000      24.562900      0.243900       0.000000      
1648.000000    30.610000      2.228900       0.277000       0.694000       3196.600000    10.831900      0.210800       5.070000       0.000000       0.000000       0.096600       0.275400       16.665000      40.052000      23.387000      19.206200      0.243500       0.000000      
1649.000000    33.880000      2.213300       0.238200       1.401000       3406.600000    11.718100      0.234300       7.120000       0.000000       0.000000       0.083900       0.251000       16.675000      40.076000      23.402000      21.849500      0.238500       0.000000      
1650.000000    30.690000      2.224100       0.255000       0.508000       3419.100000    11.401700      0.241500       5.550000       0.000000       0.000000       0.106700       0.258500       16.685000      40.101000      23.416000      20.846700      0.269100       0.000000      
1651.000000    30.630000      2.271700       0.233400       0.968000       3450.800000    12.387000      0.178400       7.450000       1.000000       0.000000       0.070500       0.233000       16.695000      40.125000      23.430000      24.204600      0.204600       0.000000      
1652.000000    39.710000      2.219900       0.251700       0.983000       3162.600000    10.579100      0.245700       6.140000       0.000000       0.000000       0.172800       0.253900       16.705000      40.149000      23.444000      18.504000      0.250000       0.000000      
1653.000000    28.890000      2.236900       0.268400       0.998000       3284.500000    11.498300      0.197100       5.260000       0.000000       0.000000       0.070700       0.262600       16.715000      40.174000      23.458000      21.125600      0.220400       0.000000      
1654.000000    34.970000      2.224200       0.266600       0.723000       3324.300000    11.029700      0.258200       6.170000       0.000000       0.000000       0.141100       0.256600       16.726000      40.198000      23.472000      19.730300      0.268600       0.000000      
1655.000000    33.260000      2.214900       0.256900       1.146000       3364.400000    11.514800      0.214700       6.490000       0.000000       0.000000       0.103500       0.251400       16.736000      40.222000      23.487000      21.165100      0.242900       0.000000      
1656.000000    33.410000      2.222600       0.254200       0.710000       3408.600000    11.443300      0.237300       6.170000       0.000000       0.000000       0.097900       0.260100       16.746000      40.247000      23.501000      20.939000      0.263900       0.000000      
1657.000000    21.360000      2.197700       0.222300       0.669000       3446.100000    11.862600      0.204500       5.610000       0.000000       0.000000       0.028400       0.266500       16.756000      40.271000      23.515000      22.274400      0.236500       0.000000      
1658.000000    22.710000      2.203300       0.289200       0.732000       3507.700000    11.815100      0.226700       5.740000       0.000000       0.000000       0.020000       0.276200       16.766000      40.295000      23.529000      22.110900      0.261000       0.000000      
1659.000000    24.090000      2.215100       0.249000       0.744000       3401.700000    12.106700      0.180900       6.580000       0.000000       0.000000       0.020000       0.256500       16.776000      40.320000      23.543000      23.103100      0.198800       0.000000      
1660.000000    29.710000      2.205400       0.231800       0.679000       3320.200000    11.318500      0.227000       6.370000       0.000000       0.000000       0.092600       0.261100       16.786000      40.344000      23.558000      20.541200      0.242400       0.000000      
1661.000000    43.580000      2.239500       0.252600       1.167000       3160.100000    10.738100      0.190200       7.330000       0.000000       0.000000       0.184200       0.246200       16.796000      40.368000      23.572000      18.891700      0.242500       0.000000      
1662.000000    27.750000      2.227600       0.245700       0.929000       3498.500000    11.934800      0.215500       5.510000       0.000000       0.000000       0.088900       0.247600       16.806000      40.392000      23.586000      22.486900      0.255400       0.000000      
1663.000000    27.810000      2.247000       0.224700       0.807000       3367.700000    11.962900      0.188900       6.280000       0.000000       0.000000       0.095600       0.238400       16.817000      40.417000      23.600000      22.577300      0.212000       0.000000      
1664.000000    34.030000      2.233800       0.266300       0.777000       3253.900000    10.912600      0.222800       5.600000       0.000000       0.000000       0.142800       0.259500       16.827000      40.441000      23.614000      19.357500      0.259300       0.000000      
1665.000000    24.400000      2.298200       0.225900       0.820000       3655.600000    12.832900      0.223500       7.340000       0.000000       0.000000       0.048800       0.235700       16.837000      40.465000      23.629000      25.942300      0.242500       0.000000      
1666.000000    34.440000      2.268400       0.230500       1.155000       3485.500000    12.021200      0.213600       7.890000       0.000000       0.000000       0.103400       0.243300       16.847000      40.490000      23.643000      22.762000      0.254700       0.000000      
