~Version Information
VERS.                          2.0 : CWLS LAS LOG DATA FORMAT VERSION 2.0
WRAP.                          NO  : One line per depth step
~Well Information
#MNEM.MEAS UNIT            DATA             DESCRIPTION
STRT .M          1000.0000              : First depth
STOP .M          4200.0000              : Last depth
STEP .M             1.0000              : Step
NULL .      -999.25                      : Null value
WELL .      AGB-02                      : Well name
~Curve Information
#MNEM .UNIT                    DESCRIPTION
DEPT      .M                   : DEPT
GR        .API                 : GR
RHOB      .G/C3                : RHOB
NPHI      .V/V                 : NPHI
RT        .OHMM                : RT
VP        .M/S                 : VP
E_STAT    .GPA                 : E_STAT
NU_STAT   .-                   : NU_STAT
UCS       .MPA                 : UCS
IS_CORE   .-                   : IS_CORE
FACIES    .-                   : FACIES
VSH_TRUE  .V/V                 : VSH_TRUE
PHI_TRUE  .V/V                 : PHI_TRUE
PP_MPA    .MPA                 : PP_MPA
SV_MPA    .MPA                 : SV_MPA
SIG_EFF_MPA.MPA                 : SIG_EFF_MPA
E_DYN     .GPA                 : E_DYN
NU_DYN    .-                   : NU_DYN
IS_HC     .-                   : IS_HC
~Parameter Information
# Generated by GeoMech-LogML synthetic generator (Agbada-like physics).
~A
# ...
2479.000000    95.860000      2.226100       0.365700       2.390000       1776.000000    1.262500       0.418000       5.730000       0.000000       3.000000       0.891200       0.269800       24.584000      60.882000      36.298000      1.948800       0.447000       0.000000      
2480.000000    92.510000      2.218400       0.358100       1.304000       1882.700000    1.264800       0.420000       6.010000       0.000000       3.000000       0.858800       0.272900       24.594000      60.907000      36.313000      1.952400       0.450000       0.000000      
2481.000000    95.710000      2.194400       0.380300       1.753000       1708.400000    1.241200       0.391700       4.770000       0.000000       3.000000       0.848300       0.288900       24.604000      60.931000      36.328000      1.914600       0.442200       0.000000      
2482.000000    97.010000      2.256900       0.329000       1.130000       2090.500000    2.140800       0.389400       5.930000       0.000000       3.000000       0.831500       0.247800       24.614000      60.956000      36.342000      3.382700       0.432000       0.000000      
2483.000000    95.300000      2.179800       0.384700       2.088000       1739.100000    1.235200       0.413800       4.150000       0.000000       3.000000       0.851900       0.295400       24.623000      60.980000      36.357000      1.904900       0.444400       0.000000      
2484.000000    96.620000      2.226100       0.367700       1.282000       1786.100000    1.263300       0.419700       5.090000       0.000000       3.000000       0.886300       0.279500       24.633000      61.005000      36.372000      1.949600       0.447600       0.000000      
2485.000000    93.380000      2.239500       0.347000       0.786000       1891.600000    1.525300       0.404200       5.260000       0.000000       3.000000       0.818500       0.277100       24.643000      61.029000      36.386000      2.369900       0.442900       0.000000      
2486.000000    90.260000      2.200600       0.377200       1.204000       1678.400000    1.299100       0.399600       4.740000       0.000000       3.000000       0.821200       0.284800       24.653000      61.054000      36.401000      2.006500       0.436500       0.000000      
2487.000000    93.170000      2.180800       0.374500       0.711000       1710.300000    1.234200       0.409700       4.540000       0.000000       3.000000       0.809400       0.297200       24.663000      61.079000      36.415000      1.903000       0.442300       0.000000      
2488.000000    86.080000      2.230300       0.364200       1.076000       1730.600000    1.497500       0.420000       5.630000       0.000000       3.000000       0.808600       0.281300       24.673000      61.103000      36.430000      2.324800       0.430800       0.000000      
2489.000000    97.700000      2.191700       0.382200       1.396000       1782.500000    1.244400       0.404500       3.970000       0.000000       3.000000       0.834000       0.284300       24.683000      61.128000      36.445000      1.919200       0.447400       0.000000      
2490.000000    101.220000     2.221600       0.381900       2.140000       1746.400000    1.258900       0.396800       4.610000       0.000000       3.000000       0.918900       0.281900       24.693000      61.152000      36.459000      1.942100       0.445000       0.000000      
2491.000000    93.190000      2.268200       0.372700       1.485000       1904.700000    1.608900       0.408300       5.570000       0.000000       3.000000       0.865300       0.256300       24.703000      61.177000      36.474000      2.504900       0.440900       0.000000      
2492.000000    86.840000      2.232000       0.367500       1.187000       1710.900000    1.344100       0.402800       4.860000       0.000000       3.000000       0.811600       0.287300       24.713000      61.201000      36.489000      2.078100       0.437800       0.000000      
2493.000000    92.840000      2.226400       0.373200       1.786000       1849.800000    1.267100       0.420000       4.880000       0.000000       3.000000       0.873600       0.268000       24.723000      61.226000      36.503000      1.955200       0.450000       0.000000      
2494.000000    90.320000      2.245500       0.304100       1.042000       2172.500000    2.912800       0.357100       6.520000       0.000000       3.000000       0.750000       0.250500       24.733000      61.250000      36.518000      4.703900       0.406300       0.000000      
2495.000000    99.400000      2.198400       0.371200       1.821000       1812.800000    1.249900       0.419500       4.740000       0.000000       3.000000       0.853200       0.278700       24.742000      61.275000      36.533000      1.927700       0.449300       0.000000      
2496.000000    90.760000      2.252200       0.366200       2.239000       1911.400000    1.284200       0.420000       5.700000       0.000000       3.000000       0.901800       0.260200       24.752000      61.300000      36.547000      1.982400       0.450000       0.000000      
2497.000000    100.100000     2.219500       0.370400       1.580000       1744.500000    1.257700       0.412900       4.300000       0.000000       3.000000       0.892500       0.282000       24.762000      61.324000      36.562000      1.940100       0.444800       0.000000      
2498.000000    91.960000      2.215500       0.375800       1.340000       1705.400000    1.253100       0.420000       4.680000       0.000000       3.000000       0.858400       0.277400       24.772000      61.349000      36.576000      1.932800       0.442000       0.000000      
2499.000000    98.050000      2.172200       0.369300       1.530000       1684.900000    1.228100       0.420000       3.940000       0.000000       3.000000       0.888400       0.290200       24.782000      61.373000      36.591000      1.892900       0.440400       0.000000      
2500.000000    92.820000      2.204200       0.365000       0.926000       1873.800000    1.345100       0.420000       5.280000       0.000000       3.000000       0.845100       0.274200       24.792000      61.398000      36.606000      2.079500       0.448900       0.000000      
2501.000000    91.780000      2.221000       0.360100       1.389000       1889.300000    1.266100       0.413400       4.970000       0.000000       3.000000       0.855600       0.276000       24.802000      61.422000      36.620000      1.953400       0.450000       0.000000      
2502.000000    97.190000      2.221200       0.391300       1.448000       1874.700000    1.265500       0.409300       4.340000       0.000000       3.000000       0.888700       0.273700       24.812000      61.447000      36.635000      1.952400       0.450000       0.000000      
2503.000000    100.560000     2.200800       0.370800       1.533000       1637.600000    1.240500       0.399200       5.260000       0.000000       3.000000       0.888100       0.279200       24.822000      61.471000      36.650000      1.912600       0.436400       0.000000      
2504.000000    91.000000      2.193100       0.376000       1.398000       1757.500000    1.308400       0.397400       4.990000       0.000000       3.000000       0.833600       0.279700       24.832000      61.496000      36.664000      2.020900       0.442300       0.000000      
2505.000000    70.720000      2.256300       0.303500       0.711000       2728.000000    5.623300       0.318700       7.890000       0.000000       2.000000       0.551300       0.242400       24.842000      61.521000      36.679000      9.971000       0.360400       0.000000      
2506.000000    62.810000      2.268500       0.279900       0.471000       2808.900000    6.447900       0.303900       9.640000       0.000000       2.000000       0.498900       0.237100       24.852000      61.545000      36.694000      11.847000      0.335200       0.000000      
2507.000000    68.210000      2.310600       0.253200       0.880000       2998.300000    7.296100       0.292300       10.580000      0.000000       2.000000       0.466200       0.227200       24.861000      61.570000      36.708000      13.981000      0.330700       0.000000      
