~Version Information
VERS.                          2.0 : CWLS LAS LOG DATA FORMAT VERSION 2.0
WRAP.                          NO  : One line per depth step
~Well Information
#MNEM.MEAS UNIT            DATA             DESCRIPTION
STRT .M          1000.0000              : First depth
STOP .M          4200.0000              : Last depth
STEP .M             1.0000              : Step
NULL .      -999.25                      : Null value
WELL .      AGB-01                      : Well name
~Curve Information
#MNEM .UNIT                    DESCRIPTION
DEPT      .M                   : DEPT
GR        .API                 : GR
RHOB      .G/C3                : RHOB
NPHI      .V/V                 : NPHI
RT        .OHMM                : RT
VP        .M/S                 : VP
E_STAT    .GPA                 : E_STAT
NU_STAT   .-                   : NU_STAT
UCS       .MPA                 : UCS
IS_CORE   .-                   : IS_CORE
FACIES    .-                   : FACIES
VSH_TRUE  .V/V                 : VSH_TRUE
PHI_TRUE  .V/V                 : PHI_TRUE
PP_MPA    .MPA                 : PP_MPA
SV_MPA    .MPA                 : SV_MPA
SIG_EFF_MPA.MPA                 : SIG_EFF_MPA
E_DYN     .GPA                 : E_DYN
NU_DYN    .-                   : NU_DYN
IS_HC     .-                   : IS_HC
~Parameter Information
# Generated by GeoMech-LogML synthetic generator (Agbada-like physics).
~A
# ...
3320.000000    91.330000      2.207200       0.368400       1.563000       1909.900000    1.488700       0.416500       4.000000       0.000000       3.000000       0.853200       0.271700       39.144000      75.455000      36.311000      2.060900       0.450000       0.000000      
3321.000000    92.260000      2.179100       0.376000       0.796000       1667.000000    1.373600       0.420000       4.140000       0.000000       3.000000       0.866800       0.296000       39.172000      75.478000      36.305000      1.897000       0.438900       0.000000      
3322.000000    93.630000      2.269100       0.327600       2.179000       2048.100000    2.285800       0.404400       5.650000       1.000000       3.000000       0.822100       0.255500       39.200000      75.500000      36.300000      3.218200       0.433100       0.000000      
3323.000000    99.680000      2.231600       0.361800       2.417000       1902.300000    1.420600       0.420000       4.140000       0.000000       3.000000       0.846800       0.283500       39.228000      75.523000      36.295000      1.963600       0.450000       0.000000      
3324.000000    94.590000      2.282800       0.323700       1.314000       2025.500000    2.594700       0.383700       5.990000       0.000000       3.000000       0.840600       0.238100       39.257000      75.546000      36.289000      3.677600       0.419800       0.000000      
3325.000000    91.290000      2.196600       0.371100       1.340000       1603.200000    1.379400       0.420000       4.580000       0.000000       3.000000       0.885800       0.290600       39.285000      75.569000      36.284000      1.904800       0.433300       0.000000      
3326.000000    88.690000      2.248400       0.357500       1.445000       1949.900000    1.926200       0.404800       4.540000       0.000000       3.000000       0.829700       0.264700       39.313000      75.591000      36.278000      2.690400       0.438600       0.000000      
3327.000000    89.460000      2.241600       0.308700       0.817000       2125.500000    3.065400       0.380700       6.740000       0.000000       3.000000       0.774900       0.246800       39.341000      75.614000      36.273000      4.390700       0.409100       0.000000      
3328.000000    96.330000      2.219400       0.347500       1.926000       1964.000000    1.569200       0.399100       5.060000       0.000000       3.000000       0.854500       0.268300       39.369000      75.637000      36.267000      2.175100       0.450000       0.000000      
3329.000000    88.030000      2.236500       0.372900       0.935000       2089.300000    2.275800       0.409100       4.500000       0.000000       3.000000       0.788100       0.268000       39.398000      75.660000      36.262000      3.202100       0.435500       0.000000      
3330.000000    94.800000      2.250000       0.351700       1.168000       2049.200000    1.917700       0.384700       4.720000       0.000000       3.000000       0.814400       0.271200       39.426000      75.682000      36.256000      2.677300       0.445700       0.000000      
3331.000000    96.750000      2.183900       0.395200       1.553000       1652.500000    1.376200       0.393700       3.590000       0.000000       3.000000       0.859600       0.302000       39.454000      75.705000      36.251000      1.899600       0.437700       0.000000      
3332.000000    97.650000      2.242700       0.347700       1.294000       2009.200000    1.798700       0.420000       4.670000       0.000000       3.000000       0.833100       0.268200       39.483000      75.728000      36.245000      2.504700       0.447200       0.000000      
3333.000000    94.850000      2.231300       0.362000       1.901000       1915.700000    1.729900       0.415100       4.880000       0.000000       3.000000       0.845600       0.265500       39.511000      75.750000      36.239000      2.405200       0.443400       0.000000      
3334.000000    93.610000      2.244000       0.351400       1.346000       1745.700000    1.538200       0.407400       4.490000       0.000000       3.000000       0.853900       0.269900       39.539000      75.773000      36.234000      2.129900       0.439300       0.000000      
3335.000000    92.410000      2.203500       0.364200       2.135000       1721.700000    1.393700       0.396600       4.160000       0.000000       3.000000       0.872100       0.278400       39.568000      75.796000      36.228000      1.923900       0.443200       0.000000      
3336.000000    91.940000      2.188700       0.364000       1.240000       1635.600000    1.378200       0.391400       4.690000       0.000000       3.000000       0.849400       0.291700       39.596000      75.819000      36.222000      1.901800       0.436300       0.000000      
3337.000000    91.260000      2.255000       0.348500       1.837000       1956.200000    1.888200       0.406900       5.200000       0.000000       3.000000       0.836800       0.263600       39.625000      75.841000      36.216000      2.633300       0.440800       0.000000      
3338.000000    95.730000      2.178100       0.358300       2.707000       1768.200000    1.381400       0.416900       4.280000       1.000000       3.000000       0.860300       0.291700       39.653000      75.864000      36.211000      1.906000       0.446400       0.000000      
3339.000000    99.210000      2.203800       0.386500       1.745000       1450.000000    1.368700       0.396700       4.770000       0.000000       3.000000       0.927300       0.291900       39.682000      75.887000      36.205000      1.887900       0.416000       0.000000      
3340.000000    87.260000      2.243400       0.345900       1.261000       1927.100000    2.109600       0.400200       4.630000       0.000000       3.000000       0.805100       0.267100       39.711000      75.910000      36.199000      2.955300       0.429200       0.000000      
3341.000000    98.130000      2.182200       0.388300       2.082000       1594.100000    1.371200       0.407600       4.100000       0.000000       3.000000       0.905400       0.301600       39.739000      75.932000      36.193000      1.891200       0.432400       0.000000      
3342.000000    93.310000      2.189900       0.372900       2.071000       1861.400000    1.394400       0.414500       4.060000       0.000000       3.000000       0.847000       0.291200       39.768000      75.955000      36.187000      1.924000       0.450000       0.000000      
3343.000000    95.780000      2.198000       0.397400       0.936000       1644.100000    1.385300       0.412600       3.460000       0.000000       3.000000       0.887500       0.295800       39.797000      75.978000      36.181000      1.910900       0.437000       0.000000      
3344.000000    93.640000      2.151100       0.372200       1.038000       1603.000000    1.353300       0.405400       3.700000       0.000000       3.000000       0.854000       0.305000       39.825000      76.000000      36.175000      1.865300       0.433300       0.000000      
3345.000000    100.980000     2.232700       0.364000       1.395000       1839.300000    1.420000       0.416100       5.700000       0.000000       3.000000       0.851600       0.279000       39.854000      76.023000      36.169000      1.959800       0.450000       0.000000      
3346.000000    98.580000      2.206700       0.391500       1.347000       1502.000000    1.377400       0.389900       4.620000       0.000000       3.000000       0.903900       0.292900       39.883000      76.046000      36.163000      1.899200       0.422600       0.000000      
3347.000000    99.490000      2.244700       0.347800       1.991000       2182.900000    2.326900       0.403500       6.480000       0.000000       3.000000       0.822000       0.253800       39.912000      76.069000      36.157000      3.273100       0.440600       0.000000      
3348.000000    95.020000      2.209100       0.410700       1.292000       1622.300000    1.391000       0.414500       3.840000       0.000000       3.000000       0.862400       0.298000       39.941000      76.091000      36.151000      1.918000       0.435100       0.000000      
