~Version Information
VERS.                          2.0 : CWLS LAS LOG DATA FORMAT VERSION 2.0
WRAP.                          NO  : One line per depth step
~Well Information
#MNEM.MEAS UNIT            DATA             DESCRIPTION
STRT .M          1000.0000              : First depth
STOP .M          4200.0000              : Last depth
STEP .M             1.0000              : Step
NULL .      -999.25                      : Null value
WELL .      AGB-03                      : Well name
~Curve Information
#MNEM .UNIT                    DESCRIPTION
DEPT      .M                   : DEPT
GR        .API                 : GR
RHOB      .G/C3                : RHOB
NPHI      .V/V                 : NPHI
RT        .OHMM                : RT
VP        .M/S                 : VP
E_STAT    .GPA                 : E_STAT
NU_STAT   .-                   : NU_STAT
UCS       .MPA                 : UCS
IS_CORE   .-                   : IS_CORE
FACIES    .-                   : FACIES
VSH_TRUE  .V/V                 : VSH_TRUE
PHI_TRUE  .V/V                 : PHI_TRUE
PP_MPA    .MPA                 : PP_MPA
SV_MPA    .MPA                 : SV_MPA
SIG_EFF_MPA.MPA                 : SIG_EFF_MPA
E_DYN     .GPA                 : E_DYN
NU_DYN    .-                   : NU_DYN
IS_HC     .-                   : IS_HC
~Parameter Information
# Generated by GeoMech-LogML synthetic generator (Agbada-like physics).
~A
# ...
1203.000000    95.840000      1.958600       0.492200       1.027000       1450.000000    1.257100       0.379200       1.620000       0.000000       3.000000       0.894900       0.430300       12.165000      29.237000      17.072000      1.677900       0.416000       0.000000      
1204.000000    90.390000      2.052400       0.447900       0.747000       1450.000000    1.315900       0.385300       1.790000       0.000000       3.000000       0.768700       0.382400       12.175000      29.261000      17.086000      1.758200       0.416000       0.000000      
1205.000000    95.550000      2.003100       0.476100       0.959000       1450.000000    1.285100       0.384600       1.440000       0.000000       3.000000       0.904500       0.399200       12.185000      29.286000      17.101000      1.716000       0.416000       0.000000      
1206.000000    93.700000      2.067200       0.409100       1.036000       1450.000000    1.325200       0.399300       2.300000       0.000000       3.000000       0.858300       0.363500       12.195000      29.310000      17.115000      1.770900       0.416000       0.000000      
1207.000000    104.490000     1.979600       0.500000       0.975000       1450.000000    1.270400       0.387100       1.510000       0.000000       3.000000       0.959100       0.427900       12.205000      29.334000      17.129000      1.695800       0.416000       0.000000      
1208.000000    97.620000      2.054800       0.440400       1.255000       1450.000000    1.317500       0.405500       1.750000       0.000000       3.000000       0.915700       0.361400       12.215000      29.359000      17.143000      1.760300       0.416000       0.000000      
1209.000000    103.150000     1.954700       0.500000       0.972000       1450.000000    1.254900       0.378600       1.160000       0.000000       3.000000       0.926600       0.434800       12.226000      29.383000      17.157000      1.674500       0.416000       0.000000      
1210.000000    94.410000      2.076200       0.444200       0.812000       1450.000000    1.331000       0.397200       2.050000       0.000000       3.000000       0.840400       0.367900       12.236000      29.407000      17.172000      1.778600       0.416000       0.000000      
1211.000000    93.190000      2.032200       0.454400       0.707000       1450.000000    1.303500       0.372700       1.380000       0.000000       3.000000       0.868800       0.398700       12.246000      29.432000      17.186000      1.740900       0.416000       0.000000      
1212.000000    91.300000      1.995400       0.475400       0.475000       1450.000000    1.280600       0.395300       1.360000       0.000000       3.000000       0.826100       0.404100       12.256000      29.456000      17.200000      1.709400       0.416000       0.000000      
1213.000000    96.060000      2.061000       0.440500       1.205000       1450.000000    1.321700       0.377000       1.810000       0.000000       3.000000       0.868500       0.373500       12.266000      29.480000      17.214000      1.765600       0.416000       0.000000      
1214.000000    97.150000      2.013100       0.464100       0.947000       1450.000000    1.291800       0.385800       1.450000       0.000000       3.000000       0.866100       0.407500       12.276000      29.504000      17.228000      1.724600       0.416000       0.000000      
1215.000000    94.250000      2.030800       0.454200       0.680000       1450.000000    1.303000       0.362100       1.610000       0.000000       3.000000       0.857200       0.389000       12.286000      29.529000      17.242000      1.739700       0.416000       0.000000      
1216.000000    99.880000      2.015300       0.469700       0.507000       1450.000000    1.293400       0.389200       1.570000       0.000000       3.000000       0.866700       0.402400       12.296000      29.553000      17.257000      1.726400       0.416000       0.000000      
1217.000000    95.750000      2.043100       0.443600       0.596000       1450.000000    1.310900       0.384700       1.680000       0.000000       3.000000       0.837600       0.390700       12.307000      29.577000      17.271000      1.750300       0.416000       0.000000      
1218.000000    93.560000      2.037900       0.452400       0.483000       1450.000000    1.307800       0.382300       1.680000       0.000000       3.000000       0.808000       0.388600       12.317000      29.602000      17.285000      1.745800       0.416000       0.000000      
1219.000000    96.590000      2.078700       0.434200       0.857000       1450.000000    1.333400       0.396300       2.330000       0.000000       3.000000       0.856100       0.365500       12.327000      29.626000      17.299000      1.780700       0.416000       0.000000      
1220.000000    99.530000      2.053500       0.441300       0.908000       1450.000000    1.317700       0.393300       1.590000       0.000000       3.000000       0.880000       0.378900       12.337000      29.650000      17.313000      1.759200       0.416000       0.000000      
1221.000000    87.960000      2.038400       0.448000       1.268000       1450.000000    1.308300       0.372700       1.700000       0.000000       3.000000       0.770200       0.384100       12.347000      29.675000      17.328000      1.746200       0.416000       0.000000      
1222.000000    98.590000      2.032600       0.453300       0.548000       1450.000000    1.304800       0.360100       1.780000       0.000000       3.000000       0.869000       0.383500       12.357000      29.699000      17.342000      1.741200       0.416000       0.000000      
1223.000000    92.540000      2.026700       0.460800       0.718000       1450.000000    1.301300       0.391600       1.270000       0.000000       3.000000       0.833100       0.399300       12.367000      29.723000      17.356000      1.736200       0.416000       0.000000      
1224.000000    86.960000      2.052400       0.448400       0.843000       1450.000000    1.317500       0.391600       1.500000       0.000000       3.000000       0.789700       0.384000       12.377000      29.747000      17.370000      1.758200       0.416000       0.000000      
1225.000000    91.420000      2.057500       0.447800       0.516000       1450.000000    1.320800       0.393400       1.580000       0.000000       3.000000       0.831400       0.376600       12.387000      29.772000      17.384000      1.762500       0.416000       0.000000      
1226.000000    93.720000      2.064600       0.428300       1.586000       1450.000000    1.325400       0.391000       2.200000       0.000000       3.000000       0.826100       0.362300       12.398000      29.796000      17.399000      1.768700       0.416000       0.000000      
1227.000000    96.520000      1.997000       0.500000       1.050000       1450.000000    1.283100       0.392100       1.370000       0.000000       3.000000       0.910200       0.415800       12.408000      29.820000      17.413000      1.710700       0.416000       0.000000      
1228.000000    95.180000      2.053100       0.421800       1.110000       1450.000000    1.318400       0.382400       1.870000       0.000000       3.000000       0.851900       0.367100       12.418000      29.845000      17.427000      1.758800       0.416000       0.000000      
1229.000000    91.960000      1.997300       0.483900       0.592000       1450.000000    1.283600       0.387300       1.420000       0.000000       3.000000       0.860400       0.410200       12.428000      29.869000      17.441000      1.711000       0.416000       0.000000      
1230.000000    90.490000      2.055600       0.451400       0.732000       1450.000000    1.320200       0.380800       1.440000       0.000000       3.000000       0.800900       0.379800       12.438000      29.893000      17.455000      1.761000       0.416000       0.000000      
1231.000000    96.900000      2.041700       0.454100       1.237000       1450.000000    1.311600       0.390700       1.530000       0.000000       3.000000       0.902100       0.369800       12.448000      29.918000      17.470000      1.749100       0.416000       0.000000      
