~Version Information
VERS.                          2.0 : CWLS LAS LOG DATA FORMAT VERSION 2.0
WRAP.                          NO  : One line per depth step
~Well Information
#MNEM.MEAS UNIT            DATA             DESCRIPTION
STRT .M          1000.0000              : First depth
STOP .M          4200.0000              : Last depth
STEP .M             1.0000              : Step
NULL .      -999.25                      : Null value
WELL .      AGB-02                      : Well name
~Curve Information
#MNEM .UNIT                    DESCRIPTION
DEPT      .M                   : DEPT
GR        .API                 : GR
RHOB      .G/C3                : RHOB
NPHI      .V/V                 : NPHI
RT        .OHMM                : RT
VP        .M/S                 : VP
E_STAT    .GPA                 : E_STAT
NU_STAT   .-                   : NU_STAT
UCS       .MPA                 : UCS
IS_CORE   .-                   : IS_CORE
FACIES    .-                   : FACIES
VSH_TRUE  .V/V                 : VSH_TRUE
PHI_TRUE  .V/V                 : PHI_TRUE
PP_MPA    .MPA                 : PP_MPA
SV_MPA    .MPA                 : SV_MPA
SIG_EFF_MPA.MPA                 : SIG_EFF_MPA
E_DYN     .GPA                 : E_DYN
NU_DYN    .-                   : NU_DYN
IS_HC     .-                   : IS_HC
~Parameter Information
# Generated by GeoMech-LogML synthetic generator (Agbada-like physics).
~A
# ...
2682.000000    94.070000      2.266500       0.320900       1.223000       2165.400000    2.880800       0.364000       6.630000       0.000000       3.000000       0.803700       0.232400       26.655000      65.868000      39.213000      4.693900       0.406900       0.000000      
2683.000000    89.910000      2.212100       0.354500       0.686000       1862.600000    1.568000       0.409100       4.910000       0.000000       3.000000       0.809600       0.278300       26.668000      65.892000      39.225000      2.461200       0.437200       0.000000      
2684.000000    86.610000      2.275000       0.355600       0.892000       1842.900000    1.645400       0.394800       4.360000       0.000000       3.000000       0.831500       0.268200       26.680000      65.917000      39.236000      2.588600       0.433900       0.000000      
2685.000000    94.270000      2.261400       0.331300       2.597000       1927.100000    1.621600       0.392500       5.850000       0.000000       3.000000       0.872500       0.253400       26.693000      65.941000      39.248000      2.550000       0.441100       0.000000      
2686.000000    90.130000      2.230300       0.351200       0.767000       2008.100000    1.545100       0.419600       5.010000       0.000000       3.000000       0.846100       0.266200       26.706000      65.966000      39.260000      2.425000       0.448700       0.000000      
2687.000000    90.270000      2.274900       0.300800       2.017000       2296.200000    3.098700       0.397800       7.420000       0.000000       3.000000       0.783600       0.233600       26.718000      65.990000      39.272000      5.087300       0.411600       0.000000      
2688.000000    102.460000     2.255800       0.384100       3.523000       1773.800000    1.267100       0.400900       4.670000       0.000000       3.000000       0.905800       0.267800       26.731000      66.015000      39.284000      1.974600       0.446800       0.000000      
2689.000000    89.040000      2.221400       0.358700       1.318000       1907.500000    1.585100       0.392200       5.100000       0.000000       3.000000       0.864300       0.256800       26.744000      66.039000      39.295000      2.491700       0.440100       0.000000      
2690.000000    97.010000      2.210600       0.371800       2.111000       1718.700000    1.238900       0.417700       4.730000       0.000000       3.000000       0.940500       0.273800       26.757000      66.064000      39.307000      1.929900       0.443000       0.000000      
2691.000000    88.000000      2.226200       0.335400       1.868000       2017.700000    2.345200       0.380500       5.770000       0.000000       3.000000       0.785500       0.256700       26.770000      66.089000      39.319000      3.766600       0.413800       0.000000      
2692.000000    96.930000      2.207600       0.359500       1.111000       1765.300000    1.239700       0.405300       5.190000       0.000000       3.000000       0.922900       0.265500       26.783000      66.113000      39.330000      1.931600       0.446200       0.000000      
2693.000000    99.800000      2.242500       0.325300       1.673000       1962.700000    1.535800       0.389300       4.880000       0.000000       3.000000       0.872300       0.256700       26.796000      66.138000      39.342000      2.412100       0.446600       0.000000      
2694.000000    99.700000      2.243200       0.332700       1.366000       1693.000000    1.385600       0.399200       5.000000       0.000000       3.000000       0.877700       0.260600       26.809000      66.162000      39.353000      2.167600       0.433400       0.000000      
2695.000000    88.640000      2.239300       0.353500       1.411000       1975.000000    1.627900       0.416000       5.260000       0.000000       3.000000       0.831900       0.268200       26.822000      66.187000      39.365000      2.563600       0.443400       0.000000      
2696.000000    92.010000      2.226100       0.338800       1.325000       1984.200000    1.903900       0.396700       4.560000       0.000000       3.000000       0.844500       0.251300       26.835000      66.211000      39.376000      3.021400       0.431600       0.000000      
2697.000000    89.670000      2.226400       0.324500       0.965000       1927.000000    1.710800       0.397000       5.730000       0.000000       3.000000       0.833800       0.263300       26.848000      66.236000      39.388000      2.700600       0.435800       0.000000      
2698.000000    89.530000      2.259200       0.317000       1.780000       2134.100000    2.346600       0.400000       6.190000       0.000000       3.000000       0.802600       0.251900       26.862000      66.260000      39.399000      3.771700       0.426300       0.000000      
2699.000000    103.790000     2.222300       0.365200       1.427000       1753.100000    1.246300       0.415800       4.540000       0.000000       3.000000       0.924400       0.275000       26.875000      66.285000      39.410000      1.943300       0.445400       0.000000      
2700.000000    95.140000      2.240000       0.366200       1.166000       1910.100000    1.322700       0.420000       5.800000       0.000000       3.000000       0.898200       0.256200       26.888000      66.310000      39.422000      2.066800       0.450000       0.000000      
2701.000000    90.550000      2.261100       0.341200       1.147000       1766.400000    1.491900       0.419400       5.930000       0.000000       3.000000       0.885200       0.253600       26.901000      66.334000      39.433000      2.341900       0.434600       0.000000      
2702.000000    97.700000      2.224600       0.371800       1.426000       1669.100000    1.242000       0.415000       5.180000       0.000000       3.000000       0.905800       0.274500       26.915000      66.359000      39.444000      1.936800       0.439100       0.000000      
2703.000000    105.210000     2.227800       0.358100       1.524000       1452.500000    1.224600       0.371800       5.840000       0.000000       3.000000       0.937800       0.277200       26.928000      66.383000      39.455000      1.908900       0.416300       0.000000      
2704.000000    95.090000      2.226500       0.348100       0.891000       1736.000000    1.247200       0.419400       5.080000       0.000000       3.000000       0.863700       0.276200       26.942000      66.408000      39.466000      1.945400       0.444200       0.000000      
2705.000000    102.250000     2.263600       0.342800       1.988000       1801.400000    1.271000       0.420000       5.230000       0.000000       3.000000       0.928700       0.258300       26.955000      66.432000      39.477000      1.983800       0.448600       0.000000      
2706.000000    97.510000      2.225700       0.359800       1.151000       1844.000000    1.530500       0.404600       5.460000       0.000000       3.000000       0.851100       0.264200       26.969000      66.457000      39.488000      2.405500       0.437900       0.000000      
2707.000000    95.800000      2.178800       0.370100       1.221000       1770.700000    1.223200       0.418000       4.470000       0.000000       3.000000       0.839300       0.283500       26.982000      66.482000      39.499000      1.906900       0.446600       0.000000      
2708.000000    94.790000      2.204900       0.380700       1.226000       1753.600000    1.236400       0.408300       5.420000       0.000000       3.000000       0.876500       0.279800       26.996000      66.506000      39.510000      1.928200       0.445400       0.000000      
2709.000000    90.610000      2.269400       0.338000       1.639000       1957.200000    1.944900       0.416200       6.420000       0.000000       3.000000       0.852300       0.248000       27.010000      66.531000      39.521000      3.092200       0.428900       0.000000      
2710.000000    92.270000      2.262500       0.338400       1.691000       1999.400000    2.274900       0.368300       5.000000       0.000000       3.000000       0.797300       0.256100       27.023000      66.555000      39.532000      3.651000       0.416900       0.000000      
