~Version Information
VERS.                          2.0 : CWLS LAS LOG DATA FORMAT VERSION 2.0
WRAP.                          NO  : One line per depth step
~Well Information
#MNEM.MEAS UNIT            DATA             DESCRIPTION
STRT .M          1000.0000              : First depth
STOP .M          4200.0000              : Last depth
STEP .M             1.0000              : Step
NULL .      -999.25                      : Null value
WELL .      AGB-02                      : Well name
~Curve Information
#MNEM .UNIT                    DESCRIPTION
DEPT      .M                   : DEPT
GR        .API                 : GR
RHOB      .G/C3                : RHOB
NPHI      .V/V                 : NPHI
RT        .OHMM                : RT
VP        .M/S                 : VP
E_STAT    .GPA                 : E_STAT
NU_STAT   .-                   : NU_STAT
UCS       .MPA                 : UCS
IS_CORE   .-                   : IS_CORE
FACIES    .-                   : FACIES
VSH_TRUE  .V/V                 : VSH_TRUE
PHI_TRUE  .V/V                 : PHI_TRUE
PP_MPA    .MPA                 : PP_MPA
SV_MPA    .MPA                 : SV_MPA
SIG_EFF_MPA.MPA                 : SIG_EFF_MPA
E_DYN     .GPA                 : E_DYN
NU_DYN    .-                   : NU_DYN
IS_HC     .-                   : IS_HC
~Parameter Information
# Generated by GeoMech-LogML synthetic generator (Agbada-like physics).
~A
# ...
3958.000000    97.520000      2.192400       0.381300       1.877000       1712.300000    1.235200       0.417000       5.390000       0.000000       3.000000       0.855700       0.289700       66.850000      97.205000      30.355000      1.913300       0.442500       0.000000      
3959.000000    100.160000     2.164600       0.408300       1.798000       1597.100000    1.212000       0.406800       3.630000       0.000000       3.000000       0.865300       0.315900       66.901000      97.230000      30.329000      1.876300       0.432700       0.000000      
3960.000000    99.940000      2.182700       0.380000       2.338000       1450.000000    1.208000       0.396300       3.430000       0.000000       3.000000       0.923100       0.304600       66.951000      97.254000      30.303000      1.869900       0.416000       0.000000      
3961.000000    67.120000      2.224000       0.283100       0.762000       2684.500000    5.654400       0.304700       6.540000       0.000000       2.000000       0.507800       0.248000       67.002000      97.279000      30.277000      10.103800      0.347300       0.000000      
3962.000000    69.590000      2.231000       0.316600       0.819000       2523.100000    4.961300       0.312100       5.240000       0.000000       2.000000       0.546800       0.254900       67.053000      97.303000      30.251000      8.625800       0.355700       0.000000      
3963.000000    65.050000      2.235100       0.289300       0.671000       2300.500000    5.069300       0.270400       5.300000       0.000000       2.000000       0.522600       0.255600       67.103000      97.328000      30.225000      8.849300       0.297500       0.000000      
3964.000000    80.650000      2.236300       0.304200       0.600000       2335.900000    3.839500       0.357800       4.780000       0.000000       2.000000       0.627300       0.260900       67.154000      97.352000      30.198000      6.415900       0.382600       0.000000      
3965.000000    67.740000      2.262000       0.309900       0.719000       2538.800000    5.100200       0.319800       6.750000       0.000000       2.000000       0.574800       0.241600       67.205000      97.377000      30.172000      8.912500       0.354300       0.000000      
3966.000000    76.620000      2.208100       0.330000       0.991000       2337.800000    3.509400       0.392400       4.430000       0.000000       2.000000       0.628900       0.270400       67.256000      97.401000      30.146000      5.800900       0.396000       0.000000      
3967.000000    70.380000      2.262000       0.308400       0.808000       2478.200000    4.807900       0.338400       7.730000       0.000000       2.000000       0.579000       0.249100       67.306000      97.426000      30.120000      8.308300       0.358900       0.000000      
3968.000000    74.180000      2.223500       0.309600       0.481000       2357.600000    3.661100       0.353900       4.860000       0.000000       2.000000       0.618700       0.269900       67.357000      97.451000      30.093000      6.080100       0.392800       0.000000      
3969.000000    69.070000      2.268700       0.291500       0.587000       2830.600000    6.307300       0.317800       7.310000       0.000000       2.000000       0.480500       0.241500       67.408000      97.475000      30.067000      11.586200      0.344700       0.000000      
3970.000000    74.700000      2.274500       0.308700       0.918000       2310.800000    3.941200       0.340700       5.940000       0.000000       2.000000       0.643300       0.252800       67.459000      97.500000      30.041000      6.604600       0.377000       0.000000      
3971.000000    76.740000      2.195600       0.334200       0.702000       2360.400000    3.786200       0.360100       3.980000       0.000000       2.000000       0.567600       0.283700       67.510000      97.524000      30.014000      6.311500       0.385600       0.000000      
3972.000000    73.310000      2.264700       0.288100       1.036000       2544.000000    4.927400       0.315300       6.880000       0.000000       2.000000       0.595700       0.239600       67.561000      97.549000      29.988000      8.547500       0.364100       0.000000      
3973.000000    80.520000      2.194300       0.324100       0.557000       2114.000000    2.901300       0.364400       4.730000       0.000000       2.000000       0.644000       0.284300       67.612000      97.573000      29.961000      4.703000       0.396300       0.000000      
3974.000000    78.980000      2.222100       0.317000       0.794000       2482.100000    4.489400       0.340900       4.740000       0.000000       2.000000       0.555400       0.266700       67.663000      97.598000      29.935000      7.662300       0.371900       0.000000      
3975.000000    74.450000      2.261300       0.264000       0.692000       2933.200000    6.228400       0.353900       6.740000       0.000000       2.000000       0.484600       0.243700       67.714000      97.622000      29.908000      11.389800      0.363300       0.000000      
3976.000000    61.880000      2.292100       0.277700       1.202000       2778.000000    6.740900       0.300500       8.060000       0.000000       2.000000       0.469400       0.230800       67.765000      97.647000      29.882000      12.624800      0.313500       0.000000      
3977.000000    69.100000      2.251300       0.301800       0.958000       2476.800000    5.125000       0.318000       6.200000       0.000000       2.000000       0.532200       0.255200       67.816000      97.672000      29.855000      8.950300       0.340600       0.000000      
3978.000000    28.990000      2.348700       0.185900       0.741000       3919.900000    10.580100      0.175800       15.560000      0.000000       0.000000       0.068700       0.188900       67.868000      97.696000      29.828000      32.098100      0.209100       0.000000      
3979.000000    29.420000      2.334500       0.205500       0.852000       3705.000000    10.370000      0.210500       13.060000      1.000000       0.000000       0.159400       0.197700       67.919000      97.721000      29.802000      27.239400      0.238900       0.000000      
3980.000000    27.270000      2.356300       0.180500       1.015000       3932.300000    10.585000      0.183200       13.350000      0.000000       0.000000       0.074600       0.190000       67.970000      97.745000      29.775000      31.997800      0.218200       0.000000      
3981.000000    38.290000      2.361300       0.193600       0.898000       3672.800000    10.403200      0.200500       12.840000      0.000000       0.000000       0.153800       0.197700       68.021000      97.770000      29.748000      27.559300      0.228100       0.000000      
3982.000000    33.780000      2.346600       0.179000       0.736000       3871.900000    10.540900      0.231700       15.480000      0.000000       0.000000       0.129300       0.192200       68.073000      97.794000      29.722000      29.591000      0.244900       0.000000      
3983.000000    33.390000      2.320600       0.181100       0.998000       3982.200000    10.552200      0.245600       15.060000      0.000000       0.000000       0.125400       0.192900       68.124000      97.819000      29.695000      29.804000      0.264400       0.000000      
3984.000000    32.890000      2.359900       0.172500       1.708000       3965.300000    10.586900      0.189100       16.770000      0.000000       0.000000       0.090800       0.178800       68.176000      97.844000      29.668000      32.632700      0.217200       0.000000      
3985.000000    35.310000      2.308600       0.184800       0.475000       3549.800000    10.188100      0.187600       13.190000      0.000000       0.000000       0.176900       0.199100       68.227000      97.868000      29.641000      25.532500      0.218600       0.000000      
3986.000000    31.960000      2.343400       0.168700       1.174000       4092.700000    10.575700      0.211200       18.570000      0.000000       0.000000       0.074300       0.183700       68.278000      97.893000      29.614000      33.228800      0.241300       0.000000      
