~Version Information
VERS.                          2.0 : CWLS LAS LOG DATA FORMAT VERSION 2.0
WRAP.                          NO  : One line per depth step
~Well Information
#MNEM.MEAS UNIT            DATA             DESCRIPTION
STRT .M          1000.0000              : First depth
STOP .M          4200.0000              : Last depth
STEP .M             1.0000              : Step
NULL .      -999.25                      : Null value
WELL .      AGB-01                      : Well name
~Curve Information
#MNEM .UNIT                    DESCRIPTION
DEPT      .M                   : DEPT
GR        .API                 : GR
RHOB      .G/C3                : RHOB
NPHI      .V/V                 : NPHI
RT        .OHMM                : RT
VP        .M/S                 : VP
E_STAT    .GPA                 : E_STAT
NU_STAT   .-                   : NU_STAT
UCS       .MPA                 : UCS
IS_CORE   .-                   : IS_CORE
FACIES    .-                   : FACIES
VSH_TRUE  .V/V                 : VSH_TRUE
PHI_TRUE  .V/V                 : PHI_TRUE
PP_MPA    .MPA                 : PP_MPA
SV_MPA    .MPA                 : SV_MPA
SIG_EFF_MPA.MPA                 : SIG_EFF_MPA
E_DYN     .GPA                 : E_DYN
NU_DYN    .-                   : NU_DYN
IS_HC     .-                   : IS_HC
~Parameter Information
# Generated by GeoMech-LogML synthetic generator (Agbada-like physics).
~A
# ...
2044.000000    41.390000      2.240100       0.271800       0.505000       3200.300000    9.844000       0.266400       5.290000       0.000000       1.000000       0.221800       0.254600       21.132000      46.455000      25.323000      17.682000      0.286100       0.000000      
2045.000000    47.840000      2.267300       0.252700       0.676000       3126.200000    9.605700       0.257600       5.780000       0.000000       1.000000       0.245600       0.254600       21.142000      46.478000      25.335000      17.049600      0.286700       0.000000      
2046.000000    66.120000      2.164400       0.323200       0.635000       2286.100000    4.444300       0.325500       3.600000       0.000000       2.000000       0.500900       0.296600       21.153000      46.500000      25.348000      6.602800       0.363900       0.000000      
2047.000000    67.040000      2.198600       0.317100       0.498000       2286.300000    4.701100       0.335100       4.320000       0.000000       2.000000       0.503200       0.289500       21.163000      46.523000      25.360000      7.031000       0.354100       0.000000      
2048.000000    73.340000      2.218200       0.334400       0.707000       2210.300000    3.943500       0.341500       4.370000       0.000000       2.000000       0.573100       0.287200       21.173000      46.546000      25.372000      5.784600       0.380100       0.000000      
2049.000000    66.550000      2.207400       0.299800       0.671000       2344.200000    4.759600       0.319200       5.360000       0.000000       2.000000       0.520000       0.282600       21.184000      46.568000      25.385000      7.129100       0.362500       0.000000      
2050.000000    74.450000      2.217700       0.327900       0.772000       2281.300000    4.134100       0.351000       4.780000       0.000000       2.000000       0.570100       0.283000       21.194000      46.591000      25.397000      6.092600       0.382000       0.000000      
2051.000000    69.170000      2.210600       0.327200       0.901000       2292.300000    4.622400       0.312900       4.000000       0.000000       2.000000       0.508700       0.290800       21.204000      46.614000      25.410000      6.898100       0.360400       0.000000      
2052.000000    72.780000      2.153400       0.352200       0.901000       1997.100000    3.416200       0.353400       4.420000       0.000000       2.000000       0.578700       0.297000       21.215000      46.637000      25.422000      4.946600       0.366500       0.000000      
2053.000000    62.870000      2.174100       0.328100       0.600000       2392.000000    4.534400       0.339100       3.140000       0.000000       2.000000       0.515000       0.290300       21.225000      46.659000      25.434000      6.750900       0.377300       0.000000      
2054.000000    73.420000      2.124600       0.358100       0.486000       2156.300000    3.114000       0.358500       2.900000       0.000000       2.000000       0.594800       0.301700       21.235000      46.682000      25.447000      4.477000       0.403700       0.000000      
2055.000000    72.700000      2.212400       0.314200       0.928000       2377.800000    4.652500       0.339700       4.950000       0.000000       2.000000       0.534000       0.281400       21.246000      46.705000      25.459000      6.947900       0.373300       0.000000      
2056.000000    74.720000      2.162600       0.335100       0.807000       2043.300000    3.096700       0.359100       3.380000       0.000000       2.000000       0.607300       0.298300       21.256000      46.728000      25.472000      4.450100       0.392500       0.000000      
2057.000000    81.490000      2.175000       0.334900       0.774000       2060.200000    3.357400       0.358100       4.600000       0.000000       2.000000       0.613500       0.287600       21.266000      46.750000      25.484000      4.854300       0.382600       0.000000      
2058.000000    72.700000      2.158300       0.379100       0.589000       1959.500000    2.724100       0.380200       3.510000       0.000000       2.000000       0.598900       0.314100       21.277000      46.773000      25.496000      3.881200       0.399500       0.000000      
2059.000000    75.500000      2.194400       0.343700       0.536000       2352.100000    4.069900       0.359300       4.050000       0.000000       2.000000       0.563300       0.287300       21.287000      46.796000      25.509000      5.987200       0.392400       0.000000      
2060.000000    70.620000      2.196300       0.328200       0.574000       2248.600000    4.606500       0.312600       4.430000       0.000000       2.000000       0.494100       0.295500       21.297000      46.818000      25.521000      6.870200       0.351600       0.000000      
2061.000000    75.570000      2.152900       0.358900       1.067000       2178.300000    3.129000       0.364900       2.980000       0.000000       2.000000       0.596200       0.302200       21.308000      46.841000      25.534000      4.499600       0.407200       0.000000      
2062.000000    68.060000      2.161800       0.330800       0.903000       2250.200000    3.954400       0.346900       4.290000       0.000000       2.000000       0.541500       0.296700       21.318000      46.864000      25.546000      5.800300       0.381300       0.000000      
2063.000000    71.810000      2.161900       0.352700       0.575000       2004.200000    3.354300       0.340800       3.670000       0.000000       2.000000       0.552800       0.309800       21.328000      46.887000      25.558000      4.849100       0.372300       0.000000      
2064.000000    80.130000      2.153800       0.383400       0.675000       1929.800000    2.962400       0.358300       3.940000       0.000000       2.000000       0.613400       0.299300       21.339000      46.909000      25.571000      4.243600       0.381600       0.000000      
2065.000000    68.020000      2.173200       0.332500       0.886000       2072.500000    3.901000       0.346500       3.950000       0.000000       2.000000       0.544000       0.295800       21.349000      46.932000      25.583000      5.714600       0.353900       0.000000      
2066.000000    73.790000      2.200900       0.352800       0.922000       2022.000000    3.528900       0.338300       3.840000       0.000000       2.000000       0.593400       0.290300       21.359000      46.955000      25.595000      5.123100       0.368700       0.000000      
2067.000000    96.280000      2.150800       0.378000       1.366000       1450.000000    1.332600       0.398400       3.700000       0.000000       3.000000       0.856700       0.322400       21.370000      46.978000      25.608000      1.842500       0.416000       0.000000      
2068.000000    91.450000      2.073300       0.455300       0.839000       1450.000000    1.285800       0.385100       2.260000       0.000000       3.000000       0.897100       0.364500       21.380000      47.000000      25.620000      1.776100       0.416000       0.000000      
2069.000000    93.040000      2.133000       0.403200       0.573000       1483.200000    1.325800       0.389700       2.850000       0.000000       3.000000       0.826600       0.337500       21.390000      47.023000      25.633000      1.832800       0.420300       0.000000      
2070.000000    91.680000      2.128700       0.366700       0.682000       1508.400000    1.325900       0.378800       2.770000       0.000000       3.000000       0.811300       0.322700       21.401000      47.046000      25.645000      1.833000       0.423300       0.000000      
2071.000000    100.400000     2.110500       0.413700       1.230000       1450.000000    1.308300       0.375500       2.720000       0.000000       3.000000       0.904300       0.337400       21.411000      47.068000      25.657000      1.808000       0.416000       0.000000      
2072.000000    83.830000      2.093500       0.425700       0.454000       1465.400000    1.299800       0.380500       2.270000       0.000000       3.000000       0.753200       0.353800       21.421000      47.091000      25.670000      1.796000       0.418000       0.000000      
