~Version Information
VERS.                          2.0 : CWLS LAS LOG DATA FORMAT VERSION 2.0
WRAP.                          NO  : One line per depth step
~Well Information
#MNEM.MEAS UNIT            DATA             DESCRIPTION
STRT .M          1000.0000              : First depth
STOP .M          4200.0000              : Last depth
STEP .M             1.0000              : Step
NULL .      -999.25                      : Null value
WELL .      AGB-03                      : Well name
~Curve Information
#MNEM .UNIT                    DESCRIPTION
DEPT      .M                   : DEPT
GR        .API                 : GR
RHOB      .G/C3                : RHOB
NPHI      .V/V                 : NPHI
RT        .OHMM                : RT
VP        .M/S                 : VP
E_STAT    .GPA                 : E_STAT
NU_STAT   .-                   : NU_STAT
UCS       .MPA                 : UCS
IS_CORE   .-                   : IS_CORE
FACIES    .-                   : FACIES
VSH_TRUE  .V/V                 : VSH_TRUE
PHI_TRUE  .V/V                 : PHI_TRUE
PP_MPA    .MPA                 : PP_MPA
SV_MPA    .MPA                 : SV_MPA
SIG_EFF_MPA.MPA                 : SIG_EFF_MPA
E_DYN     .GPA                 : E_DYN
NU_DYN    .-                   : NU_DYN
IS_HC     .-                   : IS_HC
~Parameter Information
# Generated by GeoMech-LogML synthetic generator (Agbada-like physics).
~A
# ...
3320.000000    47.530000      2.347500       0.208200       2.162000       3804.600000    13.060900      0.249500       12.650000      0.000000       1.000000       0.252300       0.188300       38.362000      80.688000      42.325000      27.143900      0.270800       0.000000      
3321.000000    42.810000      2.354600       0.221600       1.847000       3824.700000    13.165900      0.246200       13.710000      0.000000       1.000000       0.250100       0.184900       38.394000      80.712000      42.318000      27.700800      0.267700       0.000000      
3322.000000    44.670000      2.391900       0.173700       1.423000       4044.800000    13.795200      0.237200       16.590000      0.000000       1.000000       0.207800       0.167100       38.426000      80.736000      42.310000      32.356500      0.254100       0.000000      
3323.000000    48.030000      2.351100       0.178300       1.424000       3784.200000    13.414100      0.197900       16.250000      0.000000       1.000000       0.207700       0.181900       38.457000      80.761000      42.303000      29.190600      0.226800       0.000000      
3324.000000    46.630000      2.390100       0.196400       1.434000       3831.600000    13.445900      0.215900       14.360000      0.000000       1.000000       0.231500       0.178400       38.489000      80.785000      42.296000      29.411900      0.246900       0.000000      
3325.000000    44.520000      2.355000       0.188800       1.415000       3810.500000    13.078200      0.240400       13.790000      0.000000       1.000000       0.271700       0.180600       38.521000      80.809000      42.288000      27.269000      0.271600       0.000000      
3326.000000    52.580000      2.354200       0.238700       1.920000       3712.400000    12.423300      0.279500       12.050000      0.000000       1.000000       0.302500       0.196400       38.553000      80.833000      42.281000      24.349800      0.296300       0.000000      
3327.000000    48.580000      2.344600       0.201200       1.496000       3753.500000    12.767600      0.269900       13.020000      0.000000       1.000000       0.275800       0.191400       38.585000      80.858000      42.273000      25.796400      0.280700       0.000000      
3328.000000    47.910000      2.350000       0.207600       1.768000       3698.200000    12.632000      0.254200       13.180000      0.000000       1.000000       0.289300       0.191100       38.617000      80.882000      42.265000      25.215900      0.278700       0.000000      
3329.000000    42.370000      2.339700       0.198500       1.769000       3950.200000    13.508700      0.227700       13.790000      0.000000       1.000000       0.196900       0.185100       38.649000      80.906000      42.258000      29.922800      0.258600       0.000000      
3330.000000    42.930000      2.331800       0.192600       1.205000       3816.000000    13.139700      0.240200       11.980000      0.000000       1.000000       0.230200       0.189700       38.681000      80.931000      42.250000      27.646200      0.261900       0.000000      
3331.000000    50.750000      2.312900       0.229300       1.751000       3436.200000    11.987800      0.234100       12.170000      0.000000       1.000000       0.295900       0.201400       38.713000      80.955000      42.242000      22.775700      0.249600       0.000000      
3332.000000    48.910000      2.351900       0.204200       1.599000       3769.400000    13.012900      0.247400       13.700000      0.000000       1.000000       0.279000       0.178500       38.745000      80.979000      42.234000      27.006800      0.265400       0.000000      
3333.000000    43.930000      2.402200       0.152700       1.551000       3906.600000    13.569700      0.221700       13.640000      0.000000       1.000000       0.245600       0.167000       38.777000      81.004000      42.227000      30.456300      0.251700       0.000000      
3334.000000    49.820000      2.338800       0.212800       1.532000       3592.000000    12.508900      0.228500       12.060000      0.000000       1.000000       0.277300       0.195200       38.809000      81.028000      42.219000      24.753100      0.258200       0.000000      
3335.000000    54.480000      2.327300       0.194700       2.147000       3762.400000    13.075000      0.236300       11.910000      0.000000       1.000000       0.260900       0.178000       38.841000      81.052000      42.211000      27.359400      0.251800       0.000000      
3336.000000    49.970000      2.362400       0.196700       1.516000       3788.100000    12.830900      0.254200       13.630000      0.000000       1.000000       0.290300       0.185100       38.874000      81.076000      42.203000      26.166600      0.285500       0.000000      
3337.000000    44.050000      2.351300       0.205400       1.024000       3782.300000    13.091000      0.231700       10.930000      0.000000       1.000000       0.261400       0.180700       38.906000      81.101000      42.195000      27.464200      0.260500       0.000000      
3338.000000    50.150000      2.364700       0.196200       1.336000       3818.600000    13.200700      0.230000       10.690000      0.000000       1.000000       0.239900       0.185600       38.938000      81.125000      42.187000      28.079100      0.261800       0.000000      
3339.000000    51.190000      2.371000       0.205200       1.367000       3568.700000    12.674000      0.227000       12.120000      0.000000       1.000000       0.300700       0.180300       38.971000      81.149000      42.179000      25.487400      0.242900       0.000000      
3340.000000    44.810000      2.383300       0.174100       1.726000       4082.900000    13.684400      0.253100       15.320000      0.000000       1.000000       0.212100       0.173200       39.003000      81.174000      42.170000      31.612600      0.272600       0.000000      
3341.000000    52.140000      2.354600       0.232000       1.385000       3584.600000    12.203100      0.246900       13.860000      0.000000       1.000000       0.336600       0.186900       39.036000      81.198000      42.162000      23.612400      0.280900       0.000000      
3342.000000    96.160000      2.250000       0.342800       1.820000       1863.300000    1.709800       0.410500       5.230000       0.000000       3.000000       0.877200       0.258600       39.068000      81.222000      42.154000      2.309300       0.442900       0.000000      
3343.000000    90.380000      2.279700       0.328500       2.773000       2316.000000    3.475500       0.376700       6.640000       0.000000       3.000000       0.794300       0.235500       39.101000      81.247000      42.146000      4.871500       0.418300       0.000000      
3344.000000    94.530000      2.261100       0.333900       2.446000       1913.800000    2.091100       0.415200       4.390000       0.000000       3.000000       0.862700       0.250600       39.134000      81.271000      42.137000      2.846400       0.431800       0.000000      
3345.000000    87.520000      2.271800       0.339900       1.923000       2199.600000    3.123600       0.390100       6.220000       0.000000       3.000000       0.791700       0.246000       39.166000      81.295000      42.129000      4.345300       0.419100       0.000000      
3346.000000    91.670000      2.258300       0.334300       3.082000       2019.900000    3.014900       0.375100       5.370000       0.000000       3.000000       0.786400       0.249800       39.199000      81.320000      42.121000      4.184600       0.403500       0.000000      
3347.000000    94.410000      2.242200       0.355400       1.506000       1945.300000    1.699900       0.419800       5.450000       0.000000       3.000000       0.854300       0.267700       39.232000      81.344000      42.112000      2.296300       0.448500       0.000000      
3348.000000    98.990000      2.243500       0.361300       2.072000       1950.200000    1.563100       0.402500       4.190000       0.000000       3.000000       0.891000       0.258900       39.264000      81.368000      42.104000      2.106000       0.450000       0.000000      
