~Version Information
VERS.                          2.0 : CWLS LAS LOG DATA FORMAT VERSION 2.0
WRAP.                          NO  : One line per depth step
~Well Information
#MNEM.MEAS UNIT            DATA             DESCRIPTION
STRT .M          1000.0000              : First depth
STOP .M          4200.0000              : Last depth
STEP .M             1.0000              : Step
NULL .      -999.25                      : Null value
WELL .      AGB-01                      : Well name
~Curve Information
#MNEM .UNIT                    DESCRIPTION
DEPT      .M                   : DEPT
GR        .API                 : GR
RHOB      .G/C3                : RHOB
NPHI      .V/V                 : NPHI
RT        .OHMM                : RT
VP        .M/S                 : VP
E_STAT    .GPA                 : E_STAT
NU_STAT   .-                   : NU_STAT
UCS       .MPA                 : UCS
IS_CORE   .-                   : IS_CORE
FACIES    .-                   : FACIES
VSH_TRUE  .V/V                 : VSH_TRUE
PHI_TRUE  .V/V                 : PHI_TRUE
PP_MPA    .MPA                 : PP_MPA
SV_MPA    .MPA                 : SV_MPA
SIG_EFF_MPA.MPA                 : SIG_EFF_MPA
E_DYN     .GPA                 : E_DYN
NU_DYN    .-                   : NU_DYN
IS_HC     .-                   : IS_HC
~Parameter Information
# Generated by GeoMech-LogML synthetic generator (Agbada-like physics).
~A
# ...
2885.000000    38.600000      2.326500       0.178400       1.212000       3946.300000    12.881000      0.208700       15.160000      0.000000       0.000000       0.106900       0.190600       29.908000      65.569000      35.661000      31.477200      0.225400       0.000000      
2886.000000    33.520000      2.361800       0.194800       1.097000       4018.000000    12.954500      0.214000       15.800000      0.000000       0.000000       0.108700       0.187700       29.921000      65.591000      35.670000      32.544000      0.236500       0.000000      
2887.000000    39.940000      2.274400       0.219500       0.975000       3704.300000    12.085900      0.228000       11.340000      0.000000       0.000000       0.141400       0.224100       29.935000      65.614000      35.679000      25.738500      0.255500       0.000000      
2888.000000    34.120000      2.334500       0.203000       0.628000       4011.100000    12.902700      0.213900       13.270000      0.000000       0.000000       0.107600       0.192900       29.949000      65.637000      35.688000      31.698700      0.243000       0.000000      
2889.000000    26.890000      2.315900       0.190000       1.230000       3975.600000    12.943500      0.190700       12.060000      0.000000       0.000000       0.061500       0.199000       29.962000      65.659000      35.697000      32.266900      0.215500       0.000000      
2890.000000    33.980000      2.319600       0.183100       1.097000       3856.000000    12.775300      0.199200       14.210000      0.000000       0.000000       0.113900       0.195800       29.976000      65.682000      35.706000      30.233200      0.219500       0.000000      
2891.000000    34.190000      2.354000       0.188100       1.204000       4003.700000    12.983200      0.214800       13.930000      0.000000       0.000000       0.094800       0.186900       29.990000      65.705000      35.715000      32.903000      0.223000       0.000000      
2892.000000    33.060000      2.367500       0.196500       0.860000       3907.800000    12.798400      0.226400       14.840000      0.000000       0.000000       0.142100       0.193200       30.004000      65.728000      35.724000      30.415800      0.244800       0.000000      
2893.000000    23.900000      2.306100       0.172200       1.128000       4133.400000    13.028300      0.207800       14.250000      0.000000       0.000000       0.020000       0.204100       30.018000      65.750000      35.733000      33.965900      0.230400       0.000000      
2894.000000    31.820000      2.331500       0.175200       0.976000       4115.400000    12.989600      0.236500       14.870000      0.000000       0.000000       0.074900       0.197700       30.032000      65.773000      35.741000      32.891700      0.250200       0.000000      
2895.000000    19.400000      2.341500       0.145300       1.563000       4231.500000    13.012700      0.170400       17.400000      0.000000       0.000000       0.020000       0.180900       30.046000      65.796000      35.750000      37.162700      0.211600       0.000000      
2896.000000    46.690000      2.292000       0.187800       1.123000       3712.800000    11.937300      0.231800       9.690000       1.000000       0.000000       0.211800       0.209000       30.060000      65.819000      35.759000      24.948600      0.276000       0.000000      
2897.000000    39.390000      2.310200       0.204200       1.039000       4101.500000    12.877800      0.238900       13.350000      0.000000       0.000000       0.100500       0.202600       30.074000      65.841000      35.767000      31.137500      0.269500       0.000000      
2898.000000    22.350000      2.356700       0.169700       1.435000       4160.200000    13.040800      0.170900       14.900000      0.000000       0.000000       0.035900       0.178700       30.088000      65.864000      35.776000      36.588700      0.202600       0.000000      
2899.000000    33.850000      2.354600       0.191300       1.358000       3938.600000    12.729300      0.253600       11.580000      0.000000       0.000000       0.138800       0.202800       30.102000      65.887000      35.784000      29.642800      0.263500       0.000000      
2900.000000    20.810000      2.354200       0.152600       1.410000       4140.100000    13.049300      0.178000       17.540000      1.000000       0.000000       0.020000       0.184000       30.117000      65.909000      35.793000      36.473500      0.196500       0.000000      
2901.000000    17.760000      2.320300       0.166400       1.191000       4089.500000    13.063600      0.175300       13.890000      0.000000       0.000000       0.020000       0.195200       30.131000      65.932000      35.801000      34.693900      0.205200       0.000000      
2902.000000    30.080000      2.325300       0.174300       1.603000       3968.100000    12.986500      0.198300       13.040000      0.000000       0.000000       0.063900       0.196800       30.145000      65.955000      35.810000      32.465500      0.211300       0.000000      
2903.000000    29.140000      2.298100       0.182300       1.283000       4042.300000    13.032500      0.180200       13.870000      0.000000       0.000000       0.036500       0.197600       30.160000      65.978000      35.818000      33.338700      0.210400       0.000000      
2904.000000    32.450000      2.292400       0.189600       0.688000       3755.300000    12.375100      0.206500       12.620000      1.000000       0.000000       0.160200       0.205600       30.174000      66.000000      35.826000      27.122400      0.246300       0.000000      
2905.000000    90.080000      2.238800       0.353500       0.980000       1660.300000    1.404000       0.408500       4.530000       0.000000       3.000000       0.863400       0.280700       30.189000      66.023000      35.834000      1.948300       0.438400       0.000000      
2906.000000    92.640000      2.178100       0.380300       1.224000       1766.100000    1.374500       0.413500       3.940000       0.000000       3.000000       0.850500       0.297400       30.203000      66.046000      35.843000      1.905900       0.446300       0.000000      
2907.000000    92.000000      2.191700       0.337200       1.484000       1916.400000    1.693700       0.395900       4.090000       0.000000       3.000000       0.799200       0.283100       30.218000      66.069000      35.851000      2.364200       0.443400       0.000000      
2908.000000    93.140000      2.217900       0.355300       4.288000       1764.500000    1.399000       0.420000       4.860000       0.000000       3.000000       0.885200       0.271800       30.232000      66.091000      35.859000      1.940500       0.446200       0.000000      
2909.000000    94.360000      2.207700       0.378600       1.812000       1745.400000    1.391700       0.419400       4.720000       0.000000       3.000000       0.877500       0.279800       30.247000      66.114000      35.867000      1.929900       0.444900       0.000000      
2910.000000    94.390000      2.198200       0.405800       1.789000       1602.000000    1.375000       0.398200       4.430000       0.000000       3.000000       0.886600       0.294400       30.262000      66.137000      35.875000      1.906000       0.433200       0.000000      
2911.000000    88.820000      2.232400       0.377300       1.592000       1836.200000    1.412500       0.408800       4.760000       0.000000       3.000000       0.857400       0.274500       30.276000      66.159000      35.883000      1.959300       0.450000       0.000000      
2912.000000    86.910000      2.204100       0.344400       1.155000       1707.800000    1.449500       0.402300       4.400000       0.000000       3.000000       0.835800       0.279000       30.291000      66.182000      35.891000      2.012000       0.439000       0.000000      
2913.000000    92.160000      2.203900       0.361200       1.444000       1887.000000    1.815900       0.398300       4.880000       0.000000       3.000000       0.821400       0.270100       30.306000      66.205000      35.899000      2.540000       0.436500       0.000000      
