~Version Information
VERS.                          2.0 : CWLS LAS LOG DATA FORMAT VERSION 2.0
WRAP.                          NO  : One line per depth step
~Well Information
#MNEM.MEAS UNIT            DATA             DESCRIPTION
STRT .M          1000.0000              : First depth
STOP .M          4200.0000              : Last depth
STEP .M             1.0000              : Step
NULL .      -999.25                      : Null value
WELL .      AGB-03                      : Well name
~Curve Information
#MNEM .UNIT                    DESCRIPTION
DEPT      .M                   : DEPT
GR        .API                 : GR
RHOB      .G/C3                : RHOB
NPHI      .V/V                 : NPHI
RT        .OHMM                : RT
VP        .M/S                 : VP
E_STAT    .GPA                 : E_STAT
NU_STAT   .-                   : NU_STAT
UCS       .MPA                 : UCS
IS_CORE   .-                   : IS_CORE
FACIES    .-                   : FACIES
VSH_TRUE  .V/V                 : VSH_TRUE
PHI_TRUE  .V/V                 : PHI_TRUE
PP_MPA    .MPA                 : PP_MPA
SV_MPA    .MPA                 : SV_MPA
SIG_EFF_MPA.MPA                 : SIG_EFF_MPA
E_DYN     .GPA                 : E_DYN
NU_DYN    .-                   : NU_DYN
IS_HC     .-                   : IS_HC
~Parameter Information
# Generated by GeoMech-LogML synthetic generator (Agbada-like physics).
~A
# ...
2479.000000    97.560000      2.189900       0.380800       2.571000       1549.800000    1.412900       0.387800       3.940000       0.000000       3.000000       0.882900       0.301500       25.068000      60.248000      35.180000      1.891900       0.428000       0.000000      
2480.000000    97.750000      2.178500       0.393000       1.548000       1554.700000    1.406100       0.374100       3.660000       0.000000       3.000000       0.911500       0.296400       25.078000      60.273000      35.195000      1.882700       0.428500       0.000000      
2481.000000    88.700000      2.197500       0.374500       1.032000       2003.000000    2.332000       0.404800       5.380000       0.000000       3.000000       0.755700       0.278800       25.088000      60.297000      35.209000      3.180800       0.427700       0.000000      
2482.000000    93.240000      2.217300       0.341200       1.672000       1898.900000    1.797500       0.403700       4.650000       0.000000       3.000000       0.848200       0.263000       25.098000      60.321000      35.223000      2.425600       0.441200       0.000000      
2483.000000    94.910000      2.273700       0.344300       1.345000       1833.900000    1.623800       0.418900       4.520000       0.000000       3.000000       0.878400       0.259600       25.109000      60.346000      35.237000      2.184000       0.445200       0.000000      
2484.000000    88.170000      2.219800       0.351100       1.982000       1827.200000    1.452800       0.420000       4.500000       0.000000       3.000000       0.852100       0.275300       25.119000      60.370000      35.251000      1.947600       0.450000       0.000000      
2485.000000    98.820000      2.173800       0.376200       1.374000       1746.100000    1.418400       0.403900       4.070000       0.000000       3.000000       0.851500       0.290400       25.129000      60.394000      35.265000      1.900300       0.444900       0.000000      
2486.000000    95.720000      2.209400       0.364500       1.895000       1880.200000    1.983200       0.387900       4.300000       0.000000       3.000000       0.810200       0.270300       25.139000      60.418000      35.280000      2.686800       0.431700       0.000000      
2487.000000    89.840000      2.190000       0.357600       2.428000       1784.700000    1.451000       0.412400       4.160000       0.000000       3.000000       0.832200       0.282000       25.149000      60.443000      35.294000      1.945300       0.446700       0.000000      
2488.000000    95.910000      2.217500       0.348300       1.590000       1706.000000    1.443100       0.418800       4.370000       0.000000       3.000000       0.868300       0.276000       25.159000      60.467000      35.308000      1.934600       0.442000       0.000000      
2489.000000    87.780000      2.227100       0.361500       1.793000       1599.800000    1.440400       0.404400       4.710000       0.000000       3.000000       0.841700       0.281700       25.169000      60.491000      35.322000      1.930800       0.433000       0.000000      
2490.000000    95.780000      2.226800       0.361400       2.147000       1885.800000    1.460200       0.408900       4.780000       0.000000       3.000000       0.888000       0.271600       25.179000      60.516000      35.336000      1.958200       0.450000       0.000000      
2491.000000    96.040000      2.237000       0.347600       1.074000       1850.300000    1.778000       0.412400       4.550000       0.000000       3.000000       0.837100       0.268500       25.189000      60.540000      35.351000      2.399200       0.438900       0.000000      
2492.000000    95.220000      2.217600       0.344400       1.865000       1801.700000    1.449600       0.408500       4.580000       0.000000       3.000000       0.856700       0.275600       25.200000      60.564000      35.365000      1.943600       0.448600       0.000000      
2493.000000    100.280000     2.181100       0.381400       1.588000       1461.400000    1.396500       0.369900       4.920000       0.000000       3.000000       0.887200       0.289800       25.210000      60.589000      35.379000      1.870400       0.417500       0.000000      
2494.000000    95.640000      2.209100       0.361500       2.119000       1698.800000    1.437400       0.409400       4.220000       0.000000       3.000000       0.852200       0.290100       25.220000      60.613000      35.393000      1.926600       0.441500       0.000000      
2495.000000    92.040000      2.197700       0.359600       0.959000       2035.900000    1.899800       0.417000       4.700000       0.000000       3.000000       0.809300       0.274000       25.230000      60.637000      35.407000      2.569500       0.446000       0.000000      
2496.000000    98.650000      2.200000       0.355300       1.453000       1653.500000    1.428100       0.412600       3.700000       0.000000       3.000000       0.937800       0.287700       25.240000      60.662000      35.422000      1.913700       0.437800       0.000000      
2497.000000    96.870000      2.154500       0.402900       2.054000       1450.800000    1.378900       0.405400       4.430000       0.000000       3.000000       0.886200       0.312400       25.250000      60.686000      35.436000      1.845800       0.416100       0.000000      
2498.000000    88.370000      2.203100       0.369800       1.724000       1756.500000    1.439600       0.400600       4.640000       0.000000       3.000000       0.825200       0.285500       25.260000      60.710000      35.450000      1.929300       0.445600       0.000000      
2499.000000    97.010000      2.207900       0.365600       1.084000       1586.400000    1.427500       0.390200       3.950000       0.000000       3.000000       0.907900       0.285900       25.270000      60.734000      35.464000      1.912500       0.431700       0.000000      
2500.000000    85.030000      2.195900       0.362900       1.339000       1925.000000    2.186400       0.394100       4.440000       0.000000       3.000000       0.745600       0.287500       25.280000      60.759000      35.478000      2.973400       0.426600       0.000000      
2501.000000    85.090000      2.260800       0.349300       1.810000       2070.200000    2.407100       0.420000       4.430000       0.000000       3.000000       0.819600       0.254200       25.291000      60.783000      35.493000      3.288100       0.432800       0.000000      
2502.000000    93.380000      2.262300       0.367500       1.662000       1732.100000    1.695400       0.420000       3.800000       0.000000       3.000000       0.833700       0.273400       25.301000      60.807000      35.507000      2.282800       0.433600       0.000000      
2503.000000    89.890000      2.196900       0.361700       2.071000       1948.700000    1.994400       0.408700       4.570000       0.000000       3.000000       0.775400       0.283300       25.311000      60.832000      35.521000      2.701100       0.436500       0.000000      
2504.000000    100.280000     2.168900       0.415600       2.003000       1450.000000    1.388400       0.364600       3.430000       0.000000       3.000000       0.946600       0.312900       25.321000      60.856000      35.535000      1.858000       0.416000       0.000000      
2505.000000    97.740000      2.236600       0.340500       1.573000       1963.400000    1.865500       0.418300       4.460000       0.000000       3.000000       0.869000       0.253400       25.331000      60.880000      35.549000      2.519600       0.443700       0.000000      
2506.000000    94.070000      2.226800       0.339700       1.863000       1928.000000    1.463600       0.420000       4.910000       0.000000       3.000000       0.858900       0.274000       25.341000      60.905000      35.563000      1.961100       0.450000       0.000000      
2507.000000    101.020000     2.229500       0.352700       2.638000       1915.700000    1.464900       0.420000       4.690000       0.000000       3.000000       0.895100       0.268900       25.351000      60.929000      35.578000      1.962700       0.450000       0.000000      
