~Version Information
VERS.                          2.0 : CWLS LAS LOG DATA FORMAT VERSION 2.0
WRAP.                          NO  : One line per depth step
~Well Information
#MNEM.MEAS UNIT            DATA             DESCRIPTION
STRT .M          1000.0000              : First depth
STOP .M          4200.0000              : Last depth
STEP .M             1.0000              : Step
NULL .      -999.25                      : Null value
WELL .      AGB-01                      : Well name
~Curve Information
#MNEM .UNIT                    DESCRIPTION
DEPT      .M                   : DEPT
GR        .API                 : GR
RHOB      .G/C3                : RHOB
NPHI      .V/V                 : NPHI
RT        .OHMM                : RT
VP        .M/S                 : VP
E_STAT    .GPA                 : E_STAT
NU_STAT   .-                   : NU_STAT
UCS       .MPA                 : UCS
IS_CORE   .-                   : IS_CORE
FACIES    .-                   : FACIES
VSH_TRUE  .V/V                 : VSH_TRUE
PHI_TRUE  .V/V                 : PHI_TRUE
PP_MPA    .MPA                 : PP_MPA
SV_MPA    .MPA                 : SV_MPA
SIG_EFF_MPA.MPA                 : SIG_EFF_MPA
E_DYN     .GPA                 : E_DYN
NU_DYN    .-                   : NU_DYN
IS_HC     .-                   : IS_HC
~Parameter Information
# Generated by GeoMech-LogML synthetic generator (Agbada-like physics).
~A
# ...
3117.000000    88.560000      2.211200       0.370000       1.791000       1876.000000    1.789200       0.402500       5.210000       0.000000       3.000000       0.828900       0.268600       34.082000      70.841000      36.760000      2.508000       0.436800       0.000000      
3118.000000    96.360000      2.214900       0.385900       3.843000       1549.400000    1.377100       0.411400       4.320000       0.000000       3.000000       0.921500       0.292000       34.103000      70.864000      36.761000      1.913400       0.427900       0.000000      
3119.000000    94.900000      2.227900       0.368500       2.326000       1654.100000    1.394600       0.400000       4.710000       0.000000       3.000000       0.923800       0.289700       34.125000      70.887000      36.761000      1.938100       0.437800       0.000000      
3120.000000    92.260000      2.198500       0.358000       1.687000       1658.300000    1.412900       0.395100       5.190000       0.000000       3.000000       0.847300       0.276000       34.147000      70.909000      36.762000      1.964100       0.436200       0.000000      
3121.000000    94.330000      2.237900       0.385600       1.512000       1782.000000    1.410100       0.420000       3.970000       0.000000       3.000000       0.856600       0.279300       34.169000      70.932000      36.763000      1.959700       0.447400       0.000000      
3122.000000    91.680000      2.219300       0.374800       1.081000       1649.200000    1.389500       0.401100       4.280000       0.000000       3.000000       0.831900       0.287300       34.191000      70.955000      36.764000      1.930000       0.437400       0.000000      
3123.000000    90.050000      2.207300       0.341400       1.382000       1885.900000    1.600600       0.410700       4.250000       0.000000       3.000000       0.810200       0.283300       34.213000      70.978000      36.764000      2.232600       0.445400       0.000000      
3124.000000    102.060000     2.148500       0.399400       2.213000       1450.000000    1.327300       0.390500       3.840000       0.000000       3.000000       0.961600       0.309700       34.235000      71.000000      36.765000      1.840500       0.416000       0.000000      
3125.000000    90.990000      2.229300       0.354800       1.171000       1997.000000    2.108400       0.406200       4.890000       0.000000       3.000000       0.780500       0.276200       34.257000      71.023000      36.766000      2.972400       0.434000       0.000000      
3126.000000    97.100000      2.216400       0.355900       1.519000       1730.600000    1.394600       0.412200       4.450000       0.000000       3.000000       0.889900       0.279700       34.279000      71.046000      36.766000      1.936000       0.443800       0.000000      
3127.000000    106.730000     2.195800       0.365100       2.008000       1682.600000    1.378800       0.393400       5.290000       0.000000       3.000000       0.909400       0.271700       34.302000      71.069000      36.767000      1.913300       0.440200       0.000000      
3128.000000    95.800000      2.205200       0.355900       0.986000       1729.700000    1.388100       0.411300       4.050000       0.000000       3.000000       0.877400       0.284100       34.324000      71.091000      36.768000      1.926200       0.443800       0.000000      
3129.000000    96.420000      2.225500       0.365200       1.379000       1809.400000    1.405700       0.420000       4.510000       0.000000       3.000000       0.860500       0.279300       34.346000      71.114000      36.768000      1.951100       0.449100       0.000000      
3130.000000    95.210000      2.216600       0.373200       1.493000       1771.000000    1.398200       0.420000       3.760000       0.000000       3.000000       0.842200       0.284800       34.368000      71.137000      36.769000      1.940000       0.446600       0.000000      
3131.000000    90.760000      2.231900       0.364200       0.865000       1799.700000    1.422200       0.417500       4.140000       0.000000       3.000000       0.822300       0.286700       34.390000      71.159000      36.769000      1.974000       0.447900       0.000000      
3132.000000    95.090000      2.216900       0.379200       2.143000       1608.200000    1.386700       0.396000       3.630000       0.000000       3.000000       0.921900       0.280600       34.413000      71.182000      36.770000      1.923000       0.433800       0.000000      
3133.000000    38.630000      2.323000       0.197600       0.841000       3752.700000    12.618100      0.201100       13.020000      0.000000       0.000000       0.144600       0.199200       34.435000      71.205000      36.770000      28.615100      0.220900       0.000000      
3134.000000    35.720000      2.345000       0.169700       0.829000       3873.700000    12.887000      0.211600       15.750000      0.000000       0.000000       0.116700       0.193700       34.457000      71.228000      36.770000      30.890700      0.218500       0.000000      
3135.000000    34.910000      2.342400       0.182600       1.242000       4044.600000    12.907300      0.246200       15.100000      0.000000       0.000000       0.151700       0.187200       34.480000      71.250000      36.771000      31.075900      0.263800       0.000000      
3136.000000    26.030000      2.322200       0.182000       1.510000       4012.200000    13.013700      0.185000       15.010000      0.000000       0.000000       0.069300       0.198900       34.502000      71.273000      36.771000      32.463500      0.225700       0.000000      
3137.000000    33.400000      2.372700       0.161400       1.700000       3952.300000    13.064200      0.192900       15.520000      0.000000       0.000000       0.084400       0.185800       34.525000      71.296000      36.771000      33.412400      0.198700       0.000000      
3138.000000    27.810000      2.370100       0.176900       1.476000       4135.300000    13.104700      0.195400       16.050000      0.000000       0.000000       0.069600       0.178100       34.547000      71.319000      36.772000      35.699200      0.216200       0.000000      
3139.000000    27.630000      2.359300       0.175300       0.765000       4003.000000    13.067400      0.193400       17.030000      0.000000       0.000000       0.089400       0.186400       34.570000      71.341000      36.772000      33.337700      0.215300       0.000000      
3140.000000    26.300000      2.315600       0.184300       1.276000       3929.800000    13.026200      0.193600       13.840000      0.000000       0.000000       0.048700       0.199200       34.592000      71.364000      36.772000      32.478600      0.192500       0.000000      
3141.000000    23.850000      2.331100       0.178300       1.085000       3944.300000    13.027400      0.183100       14.220000      0.000000       0.000000       0.088800       0.188100       34.615000      71.387000      36.772000      32.454500      0.204500       0.000000      
3142.000000    31.290000      2.352200       0.178600       1.007000       4334.400000    13.104900      0.228700       14.820000      0.000000       0.000000       0.047100       0.187600       34.637000      71.410000      36.772000      36.453600      0.255300       0.000000      
3143.000000    28.940000      2.343000       0.156300       1.365000       3822.200000    12.840800      0.193800       12.250000      0.000000       0.000000       0.119000       0.197400       34.660000      71.432000      36.772000      30.187300      0.215200       0.000000      
3144.000000    28.760000      2.298100       0.180300       0.796000       4032.000000    13.019700      0.205300       14.080000      0.000000       0.000000       0.084100       0.193500       34.683000      71.455000      36.772000      32.217100      0.230200       0.000000      
3145.000000    33.400000      2.319100       0.189000       0.759000       4084.200000    12.925600      0.256700       13.040000      0.000000       0.000000       0.114300       0.200900       34.705000      71.478000      36.772000      30.997900      0.269400       0.000000      
