~Version Information
VERS.                          2.0 : CWLS LAS LOG DATA FORMAT VERSION 2.0
WRAP.                          NO  : One line per depth step
~Well Information
#MNEM.MEAS UNIT            DATA             DESCRIPTION
STRT .M          1000.0000              : First depth
STOP .M          4200.0000              : Last depth
STEP .M             1.0000              : Step
NULL .      -999.25                      : Null value
WELL .      AGB-03                      : Well name
~Curve Information
#MNEM .UNIT                    DESCRIPTION
DEPT      .M                   : DEPT
GR        .API                 : GR
RHOB      .G/C3                : RHOB
NPHI      .V/V                 : NPHI
RT        .OHMM                : RT
VP        .M/S                 : VP
E_STAT    .GPA                 : E_STAT
NU_STAT   .-                   : NU_STAT
UCS       .MPA                 : UCS
IS_CORE   .-                   : IS_CORE
FACIES    .-                   : FACIES
VSH_TRUE  .V/V                 : VSH_TRUE
PHI_TRUE  .V/V                 : PHI_TRUE
PP_MPA    .MPA                 : PP_MPA
SV_MPA    .MPA                 : SV_MPA
SIG_EFF_MPA.MPA                 : SIG_EFF_MPA
E_DYN     .GPA                 : E_DYN
NU_DYN    .-                   : NU_DYN
IS_HC     .-                   : IS_HC
~Parameter Information
# Generated by GeoMech-LogML synthetic generator (Agbada-like physics).
~A
# ...
3117.000000    41.400000      2.397600       0.167000       1.853000       4034.300000    13.947100      0.207000       20.150000      0.000000       0.000000       0.176500       0.168700       32.858000      75.754000      42.896000      33.452500      0.233800       0.000000      
3118.000000    34.360000      2.379200       0.176900       1.873000       4122.200000    14.031400      0.179900       15.460000      0.000000       0.000000       0.099700       0.181300       32.881000      75.778000      42.897000      35.268800      0.222700       0.000000      
3119.000000    24.170000      2.406900       0.140200       3.961000       4479.100000    13.625500      0.174300       24.540000      0.000000       0.000000       0.048600       0.149800       32.903000      75.803000      42.899000      42.929600      0.209500       0.000000      
3120.000000    29.470000      2.384700       0.160700       2.213000       4468.900000    13.601000      0.177600       23.050000      0.000000       0.000000       0.020000       0.153800       32.926000      75.827000      42.901000      43.111300      0.195300       0.000000      
3121.000000    27.190000      2.394600       0.133100       2.236000       4438.100000    13.688300      0.170200       22.690000      0.000000       0.000000       0.037700       0.153500       32.949000      75.851000      42.902000      42.446200      0.200000       0.000000      
3122.000000    40.150000      2.378600       0.193600       1.585000       4004.600000    13.805100      0.220700       16.860000      0.000000       0.000000       0.173700       0.183500       32.971000      75.876000      42.904000      31.746800      0.250700       0.000000      
3123.000000    36.470000      2.366100       0.168500       1.648000       4048.400000    13.914900      0.222800       16.090000      0.000000       0.000000       0.165500       0.174200       32.994000      75.900000      42.906000      32.975000      0.238700       0.000000      
3124.000000    35.770000      2.366200       0.142900       2.022000       4221.300000    14.051600      0.208300       16.440000      1.000000       0.000000       0.118700       0.161100       33.017000      75.924000      42.907000      36.866100      0.221200       0.000000      
3125.000000    25.150000      2.382000       0.161300       1.973000       4501.000000    13.848600      0.210500       23.300000      0.000000       0.000000       0.062800       0.160400       33.040000      75.948000      42.909000      41.007100      0.239100       0.000000      
3126.000000    33.520000      2.420200       0.137800       3.633000       4261.700000    14.029900      0.225600       17.170000      0.000000       0.000000       0.129500       0.155100       33.063000      75.973000      42.910000      38.141000      0.226200       0.000000      
3127.000000    21.460000      2.392100       0.162000       1.979000       4464.000000    13.754800      0.196600       20.860000      0.000000       0.000000       0.033700       0.161800       33.086000      75.997000      42.911000      41.953600      0.216700       0.000000      
3128.000000    27.600000      2.379000       0.158700       2.446000       4237.900000    14.044800      0.195200       18.180000      0.000000       0.000000       0.078600       0.170300       33.109000      76.021000      42.913000      37.749300      0.214000       0.000000      
3129.000000    35.020000      2.374400       0.168200       2.035000       4085.500000    13.965400      0.206200       16.210000      0.000000       0.000000       0.154900       0.175200       33.132000      76.046000      42.914000      33.573800      0.240900       0.000000      
3130.000000    27.430000      2.394300       0.161800       1.923000       4274.700000    14.028700      0.198800       20.580000      0.000000       0.000000       0.086800       0.165100       33.155000      76.070000      42.915000      38.432900      0.218000       0.000000      
3131.000000    35.130000      2.340800       0.187500       2.070000       4104.500000    14.004000      0.202600       16.280000      0.000000       0.000000       0.108800       0.182700       33.178000      76.094000      42.916000      34.148000      0.227600       0.000000      
3132.000000    26.620000      2.356300       0.164000       1.466000       4212.000000    14.059900      0.165600       18.490000      0.000000       0.000000       0.068900       0.169800       33.201000      76.119000      42.917000      37.596300      0.200600       0.000000      
3133.000000    32.930000      2.384100       0.159500       1.973000       4391.400000    13.967600      0.205600       19.690000      0.000000       0.000000       0.069100       0.163900       33.224000      76.143000      42.919000      39.786300      0.228000       0.000000      
3134.000000    28.720000      2.375400       0.143600       2.603000       4306.400000    14.068200      0.212400       16.780000      0.000000       0.000000       0.111100       0.164000       33.248000      76.167000      42.920000      37.516800      0.237800       0.000000      
3135.000000    28.990000      2.379200       0.153200       2.264000       4279.600000    14.024100      0.187700       19.650000      0.000000       0.000000       0.060300       0.167600       33.271000      76.191000      42.921000      38.933000      0.205700       0.000000      
3136.000000    40.170000      2.387900       0.177100       1.473000       4011.600000    13.997100      0.196100       14.540000      0.000000       0.000000       0.156100       0.170500       33.294000      76.216000      42.921000      33.746000      0.218300       0.000000      
3137.000000    44.140000      2.352900       0.192300       1.722000       4064.900000    13.852100      0.262400       15.780000      0.000000       0.000000       0.177000       0.180100       33.318000      76.240000      42.922000      31.890000      0.258200       0.000000      
3138.000000    43.650000      2.405700       0.176700       2.080000       4087.900000    13.993100      0.222000       14.080000      0.000000       0.000000       0.185200       0.168300       33.341000      76.264000      42.923000      33.568700      0.248900       0.000000      
3139.000000    27.110000      2.403900       0.163400       2.088000       4338.400000    13.970200      0.188900       21.680000      0.000000       0.000000       0.065100       0.162000       33.365000      76.289000      42.924000      40.100800      0.211700       0.000000      
3140.000000    30.590000      2.416700       0.141900       1.302000       4344.600000    13.950400      0.172900       21.400000      0.000000       0.000000       0.079800       0.155700       33.388000      76.313000      42.925000      40.418200      0.211900       0.000000      
3141.000000    33.850000      2.326500       0.180000       1.688000       4103.600000    14.046600      0.184600       15.260000      0.000000       0.000000       0.106300       0.179500       33.412000      76.337000      42.925000      34.308400      0.220200       0.000000      
3142.000000    27.810000      2.379900       0.159100       2.443000       4608.300000    13.661300      0.222000       19.660000      1.000000       0.000000       0.020000       0.162000       33.435000      76.362000      42.926000      43.182000      0.235900       0.000000      
3143.000000    39.680000      2.392100       0.182300       2.066000       4197.600000    14.112400      0.223900       19.840000      0.000000       0.000000       0.134700       0.162100       33.459000      76.386000      42.927000      36.447600      0.228400       0.000000      
3144.000000    40.530000      2.387500       0.158100       2.085000       4161.900000    14.072900      0.234600       15.490000      0.000000       0.000000       0.172000       0.163900       33.483000      76.410000      42.927000      34.610300      0.247700       0.000000      
3145.000000    34.040000      2.371000       0.160100       2.046000       4266.300000    14.108300      0.201500       16.570000      0.000000       0.000000       0.053300       0.180100       33.507000      76.435000      42.928000      37.808200      0.219800       0.000000      
