~Version Information
VERS.                          2.0 : CWLS LAS LOG DATA FORMAT VERSION 2.0
WRAP.                          NO  : One line per depth step
~Well Information
#MNEM.MEAS UNIT            DATA             DESCRIPTION
STRT .M          1000.0000              : First depth
STOP .M          4200.0000              : Last depth
STEP .M             1.0000              : Step
NULL .      -999.25                      : Null value
WELL .      AGB-03                      : Well name
~Curve Information
#MNEM .UNIT                    DESCRIPTION
DEPT      .M                   : DEPT
GR        .API                 : GR
RHOB      .G/C3                : RHOB
NPHI      .V/V                 : NPHI
RT        .OHMM                : RT
VP        .M/S                 : VP
E_STAT    .GPA                 : E_STAT
NU_STAT   .-                   : NU_STAT
UCS       .MPA                 : UCS
IS_CORE   .-                   : IS_CORE
FACIES    .-                   : FACIES
VSH_TRUE  .V/V                 : VSH_TRUE
PHI_TRUE  .V/V                 : PHI_TRUE
PP_MPA    .MPA                 : PP_MPA
SV_MPA    .MPA                 : SV_MPA
SIG_EFF_MPA.MPA                 : SIG_EFF_MPA
E_DYN     .GPA                 : E_DYN
NU_DYN    .-                   : NU_DYN
IS_HC     .-                   : IS_HC
~Parameter Information
# Generated by GeoMech-LogML synthetic generator (Agbada-like physics).
~A
# ...
3958.000000    30.550000      2.329500       0.166700       1.344000       3792.200000    13.720100      0.188400       11.100000      0.000000       0.000000       0.079200       0.200100       67.494000      96.193000      28.699000      29.715800      0.211100       0.000000      
3959.000000    39.510000      2.318000       0.219400       2.109000       3574.700000    13.005500      0.195900       10.390000      0.000000       0.000000       0.144800       0.207400       67.554000      96.218000      28.663000      25.928800      0.220400       0.000000      
3960.000000    29.220000      2.314100       0.191900       1.631000       3882.200000    13.794800      0.205700       12.350000      0.000000       0.000000       0.084400       0.195800       67.614000      96.242000      28.627000      30.187300      0.227800       0.000000      
3961.000000    34.080000      2.305100       0.183700       1.480000       4027.100000    14.013900      0.218400       13.350000      0.000000       0.000000       0.049700       0.195400       67.675000      96.266000      28.592000      31.967600      0.235300       0.000000      
3962.000000    29.790000      2.347200       0.191800       1.865000       3930.000000    13.947500      0.199700       13.710000      0.000000       0.000000       0.061000       0.199100       67.735000      96.290000      28.556000      31.335300      0.228700       0.000000      
3963.000000    33.320000      2.327000       0.202900       1.566000       3889.700000    13.802700      0.231800       12.930000      0.000000       0.000000       0.069400       0.203900       67.795000      96.315000      28.519000      30.184200      0.233800       0.000000      
3964.000000    24.830000      2.346700       0.171300       1.639000       4035.800000    14.164600      0.196400       17.280000      0.000000       0.000000       0.038100       0.187500       67.856000      96.339000      28.483000      33.630800      0.216900       0.000000      
3965.000000    30.220000      2.341000       0.178600       1.308000       3829.800000    13.751100      0.193400       11.450000      0.000000       0.000000       0.100900       0.194700       67.916000      96.363000      28.447000      29.795500      0.226200       0.000000      
3966.000000    23.090000      2.310500       0.175300       0.645000       4039.900000    14.014200      0.212700       12.570000      0.000000       0.000000       0.053500       0.196600       67.977000      96.388000      28.411000      31.844900      0.242700       0.000000      
3967.000000    37.370000      2.292300       0.198800       1.260000       3834.400000    13.682600      0.197100       11.220000      0.000000       0.000000       0.064900       0.206900       68.037000      96.412000      28.375000      29.320300      0.224500       0.000000      
3968.000000    30.960000      2.325800       0.190000       1.532000       3805.900000    13.581700      0.222100       12.620000      1.000000       0.000000       0.104700       0.202700       68.098000      96.436000      28.339000      28.698500      0.237600       0.000000      
3969.000000    28.040000      2.313300       0.200600       0.789000       3709.200000    13.429900      0.182500       11.830000      0.000000       0.000000       0.102500       0.206000       68.158000      96.461000      28.302000      27.851700      0.220600       0.000000      
3970.000000    29.800000      2.313400       0.197900       1.275000       3832.500000    13.724600      0.198300       12.780000      0.000000       0.000000       0.090200       0.197200       68.219000      96.485000      28.266000      29.559800      0.224500       0.000000      
3971.000000    28.110000      2.315500       0.186500       1.628000       3938.600000    13.718200      0.234800       11.420000      0.000000       0.000000       0.104000       0.198800       68.280000      96.509000      28.229000      29.511000      0.257400       0.000000      
3972.000000    42.860000      2.277500       0.217600       0.907000       3424.800000    12.039900      0.230400       9.790000       0.000000       0.000000       0.199700       0.220200       68.340000      96.533000      28.193000      22.249300      0.250300       0.000000      
3973.000000    27.500000      2.329800       0.164900       1.396000       3966.800000    14.082200      0.181000       12.750000      0.000000       0.000000       0.038400       0.193400       68.401000      96.558000      28.156000      32.423700      0.213200       0.000000      
3974.000000    33.660000      2.302700       0.214800       1.536000       3593.800000    12.978400      0.208600       10.030000      0.000000       0.000000       0.150900       0.206000       68.462000      96.582000      28.120000      25.705900      0.228700       0.000000      
3975.000000    33.940000      2.302800       0.211400       1.758000       3670.700000    13.229600      0.195300       11.430000      0.000000       0.000000       0.117100       0.209100       68.523000      96.606000      28.083000      26.830000      0.228500       0.000000      
3976.000000    31.830000      2.313100       0.199400       1.175000       3819.200000    13.788800      0.165900       13.320000      0.000000       0.000000       0.063800       0.200700       68.584000      96.631000      28.047000      29.961200      0.210300       0.000000      
3977.000000    39.650000      2.327100       0.208500       1.608000       3565.400000    13.208500      0.188700       11.940000      0.000000       0.000000       0.132500       0.200300       68.645000      96.655000      28.010000      26.729000      0.196800       0.000000      
3978.000000    33.480000      2.334400       0.205000       1.540000       3773.000000    13.731500      0.196100       10.200000      0.000000       0.000000       0.073400       0.201900       68.706000      96.679000      27.973000      29.578100      0.208600       0.000000      
3979.000000    38.530000      2.261500       0.211300       0.956000       3438.000000    11.925100      0.226400       7.670000       0.000000       1.000000       0.182900       0.229800       68.767000      96.704000      27.936000      21.877000      0.259300       0.000000      
3980.000000    39.110000      2.325400       0.194000       1.418000       3620.900000    12.873600      0.228600       12.290000      0.000000       1.000000       0.188700       0.201400       68.828000      96.728000      27.900000      25.268100      0.252900       0.000000      
3981.000000    42.680000      2.269700       0.228700       1.653000       3493.800000    11.786500      0.234100       8.690000       0.000000       1.000000       0.218400       0.224900       68.890000      96.752000      27.863000      21.445500      0.284300       0.000000      
3982.000000    39.730000      2.273400       0.234300       0.898000       3279.100000    11.256600      0.249500       7.170000       0.000000       1.000000       0.219800       0.236200       68.951000      96.777000      27.826000      19.891700      0.262100       0.000000      
3983.000000    35.990000      2.319700       0.202500       1.181000       3539.500000    12.925800      0.192900       9.200000       0.000000       1.000000       0.166900       0.200900       69.012000      96.801000      27.789000      25.491300      0.219000       0.000000      
3984.000000    44.590000      2.281700       0.230900       0.597000       3254.300000    11.314500      0.238300       9.940000       0.000000       1.000000       0.248900       0.222400       69.073000      96.825000      27.752000      20.058500      0.252100       0.000000      
3985.000000    56.780000      2.285800       0.237700       0.982000       3195.300000    10.563400      0.259800       7.550000       0.000000       1.000000       0.310800       0.224100       69.135000      96.849000      27.715000      18.054600      0.284600       0.000000      
3986.000000    43.750000      2.338100       0.211100       1.261000       3489.300000    12.475600      0.209300       10.350000      0.000000       1.000000       0.200300       0.210600       69.196000      96.874000      27.678000      23.754700      0.249300       0.000000      
