~Version Information
VERS.                          2.0 : CWLS LAS LOG DATA FORMAT VERSION 2.0
WRAP.                          NO  : One line per depth step
~Well Information
#MNEM.MEAS UNIT            DATA             DESCRIPTION
STRT .M          1000.0000              : First depth
STOP .M          4200.0000              : Last depth
STEP .M             1.0000              : Step
NULL .      -999.25                      : Null value
WELL .      AGB-02                      : Well name
~Curve Information
#MNEM .UNIT                    DESCRIPTION
DEPT      .M                   : DEPT
GR        .API                 : GR
RHOB      .G/C3                : RHOB
NPHI      .V/V                 : NPHI
RT        .OHMM                : RT
VP        .M/S                 : VP
E_STAT    .GPA                 : E_STAT
NU_STAT   .-                   : NU_STAT
UCS       .MPA                 : UCS
IS_CORE   .-                   : IS_CORE
FACIES    .-                   : FACIES
VSH_TRUE  .V/V                 : VSH_TRUE
PHI_TRUE  .V/V                 : PHI_TRUE
PP_MPA    .MPA                 : PP_MPA
SV_MPA    .MPA                 : SV_MPA
SIG_EFF_MPA.MPA                 : SIG_EFF_MPA
E_DYN     .GPA                 : E_DYN
NU_DYN    .-                   : NU_DYN
IS_HC     .-                   : IS_HC
~Parameter Information
# Generated by GeoMech-LogML synthetic generator (Agbada-like physics).
~A
# ...
3117.000000    27.410000      2.399300       0.130100       1.450000       4487.100000    9.483500       0.177500       20.970000      0.000000       0.000000       0.020000       0.155800       35.126000      76.551000      41.425000      43.107000      0.206700       0.000000      
3118.000000    91.140000      2.261300       0.341100       0.839000       2087.500000    2.107400       0.405500       5.820000       0.000000       3.000000       0.814000       0.257800       35.152000      76.575000      41.424000      3.349400       0.432700       0.000000      
3119.000000    94.230000      2.268500       0.354400       1.290000       1941.400000    1.620700       0.413900       6.070000       0.000000       3.000000       0.887700       0.248800       35.177000      76.600000      41.422000      2.541000       0.442600       0.000000      
3120.000000    91.510000      2.245500       0.324800       1.417000       1920.500000    2.041000       0.384700       6.460000       0.000000       3.000000       0.856900       0.242600       35.203000      76.624000      41.421000      3.236700       0.420200       0.000000      
3121.000000    95.000000      2.265500       0.341000       1.065000       2104.500000    2.357900       0.384300       5.990000       0.000000       3.000000       0.827500       0.243300       35.229000      76.649000      41.420000      3.772100       0.424000       0.000000      
3122.000000    88.690000      2.261700       0.347800       1.152000       2007.800000    2.065600       0.400400       5.470000       0.000000       3.000000       0.822500       0.255900       35.255000      76.674000      41.419000      3.276600       0.428000       0.000000      
3123.000000    101.630000     2.271500       0.372400       2.871000       1861.100000    1.285100       0.413500       4.550000       0.000000       3.000000       0.937800       0.254800       35.280000      76.698000      41.418000      1.995700       0.450000       0.000000      
3124.000000    96.690000      2.255300       0.367700       1.562000       1938.700000    1.695700       0.384600       5.700000       0.000000       3.000000       0.874800       0.250300       35.306000      76.723000      41.417000      2.661600       0.438800       0.000000      
3125.000000    96.230000      2.248800       0.346600       1.676000       1929.200000    1.908600       0.398400       5.450000       0.000000       3.000000       0.835700       0.256300       35.332000      76.747000      41.415000      3.012700       0.427900       0.000000      
3126.000000    92.930000      2.241000       0.358700       2.277000       1868.000000    1.350800       0.406700       5.120000       0.000000       3.000000       0.893000       0.257800       35.358000      76.772000      41.414000      2.100100       0.448900       0.000000      
3127.000000    98.140000      2.243800       0.351600       1.262000       1866.600000    1.457500       0.420000       5.560000       0.000000       3.000000       0.898500       0.250900       35.384000      76.796000      41.413000      2.272000       0.444100       0.000000      
3128.000000    91.450000      2.247600       0.341600       1.096000       1849.300000    1.386900       0.412000       6.820000       0.000000       3.000000       0.869500       0.265400       35.409000      76.821000      41.411000      2.157600       0.446300       0.000000      
3129.000000    101.030000     2.270600       0.372600       1.355000       1695.200000    1.276500       0.409100       5.450000       0.000000       3.000000       0.906200       0.258400       35.435000      76.845000      41.410000      1.979700       0.441200       0.000000      
3130.000000    94.200000      2.306300       0.327100       1.281000       1970.100000    2.086600       0.392800       7.000000       0.000000       3.000000       0.860400       0.241900       35.461000      76.870000      41.409000      3.307200       0.425600       0.000000      
3131.000000    97.360000      2.235300       0.350000       3.858000       1656.700000    1.255000       0.420000       4.860000       0.000000       3.000000       0.913400       0.266100       35.487000      76.895000      41.407000      1.944800       0.438100       0.000000      
3132.000000    88.750000      2.261300       0.327200       0.930000       2196.500000    2.466900       0.388100       5.290000       0.000000       3.000000       0.813600       0.245000       35.513000      76.919000      41.406000      3.951300       0.427300       0.000000      
3133.000000    92.990000      2.244400       0.349800       2.170000       1882.900000    1.273300       0.411400       5.440000       0.000000       3.000000       0.893900       0.269700       35.539000      76.944000      41.404000      1.973500       0.450000       0.000000      
3134.000000    99.410000      2.230900       0.355900       1.219000       1610.000000    1.428200       0.398700       6.460000       0.000000       3.000000       0.878000       0.258900       35.565000      76.968000      41.403000      2.222200       0.421900       0.000000      
3135.000000    103.640000     2.245900       0.360600       1.572000       1818.300000    1.306400       0.409700       4.500000       0.000000       3.000000       0.874200       0.267200       35.591000      76.993000      41.401000      2.026100       0.448000       0.000000      
3136.000000    95.650000      2.254100       0.334200       1.514000       1703.100000    1.269200       0.420000       4.490000       0.000000       3.000000       0.924800       0.258400       35.618000      77.017000      41.400000      1.966200       0.441800       0.000000      
3137.000000    92.920000      2.220300       0.308800       1.247000       2006.200000    2.133300       0.388500       6.200000       0.000000       3.000000       0.820400       0.252800       35.644000      77.042000      41.398000      3.382200       0.423300       0.000000      
3138.000000    97.670000      2.284200       0.332300       2.134000       1951.100000    1.514300       0.420000       6.210000       0.000000       3.000000       0.896500       0.250700       35.670000      77.066000      41.397000      2.360300       0.448300       0.000000      
3139.000000    97.970000      2.241400       0.337200       1.706000       2087.200000    1.956600       0.401700       5.970000       0.000000       3.000000       0.847800       0.250200       35.696000      77.091000      41.395000      3.086000       0.438300       0.000000      
3140.000000    87.590000      2.284900       0.337200       1.393000       2012.700000    2.588200       0.377100       6.490000       0.000000       3.000000       0.786400       0.251000       35.722000      77.116000      41.393000      4.155200       0.404900       0.000000      
3141.000000    89.740000      2.275700       0.335500       3.166000       2024.100000    1.636700       0.407600       5.580000       0.000000       3.000000       0.890300       0.247800       35.749000      77.140000      41.392000      2.558500       0.447600       0.000000      
3142.000000    95.080000      2.309000       0.334900       1.522000       2057.700000    3.078700       0.363000       6.310000       0.000000       3.000000       0.817400       0.222800       35.775000      77.165000      41.390000      5.014000       0.386600       0.000000      
3143.000000    92.460000      2.280300       0.320100       0.755000       2189.100000    2.610600       0.404300       5.960000       0.000000       3.000000       0.806600       0.243300       35.801000      77.189000      41.388000      4.192000       0.422000       0.000000      
3144.000000    88.980000      2.255200       0.342900       2.173000       2055.300000    1.714400       0.407600       6.030000       0.000000       3.000000       0.860100       0.255700       35.827000      77.214000      41.386000      2.684400       0.446000       0.000000      
3145.000000    100.310000     2.262300       0.350400       2.525000       2014.600000    1.455600       0.419500       5.020000       0.000000       3.000000       0.894800       0.253500       35.854000      77.238000      41.385000      2.263200       0.450000       0.000000      
